자동차정비업체명,자동차정비업체종류,소재지도로명주소,소재지지번주소,위도,경도,사업등록일자,면적,영업상태,폐업일자,휴업시작일자,휴업종료일자,운영시작시각,운영종료시각,전화번호,관리기관명,관리기관전화번호,데이터기준일자
GM대우정비코너,03,경기도 가평군 가평읍 가화로 159-1,경기도 가평군 가평읍 읍내리 625-7번지,37.8333711,127.5111379,2007-06-27,268.59,01,,,,,,,가평군청,031-580-2295,2021-06-28
공용카센타,03,경기도 가평군 가평읍 석봉로 237,경기도 가평군 가평읍 읍내리 745번지,37.8360139,127.5083275,2003-04-10,264.46,01,,,,,,,가평군청,031-580-2295,2021-06-28
㈜블루버드엔터프라이즈,03,경기도 가평군 설악면 유명로 1969,경기도 가평군 설악면 회곡리 18-1번지,37.685141,127.4668638,2015-08-05,2203,01,,,,,,,가평군청,031-580-2295,2021-06-28
가평자동차정비공업㈜,02,경기도 가평군 가평읍 태평길 3,경기도 가평군 가평읍 읍내리 351-4번지,37.8280937,127.5148273,1993-09-20,695,01,,,,,,,가평군청,031-580-2295,2021-06-28
가평점 현대자동차,03,경기도 가평군 가평읍 광장로 21,경기도 가평군 가평읍 대곡리 269-2번지,37.8257657,127.5094161,2011-02-07,478,01,,,,,,,가평군청,031-580-2295,2021-06-28
가평카센타,03,경기도 가평군 가평읍 가화로 207,경기도 가평군 가평읍 읍내리 748-9번지,37.8370674,127.508471,1999-03-04,238.01,01,,,,,,,가평군청,031-580-2295,2021-06-28
건영카센타,03,경기도 가평군 조종면 연등윗길 6,경기도 가평군 조종면 현리 435-21번지,37.8145981,127.3489515,1998-10-29,561.98,01,,,,,,,가평군청,031-580-2295,2021-06-28
경기카센타,03,경기도 가평군 가평읍 가화로 77,경기도 가평군 가평읍 대곡리 233-3번지,37.8267071,127.514636,2002-08-28,290,01,,,,,,,가평군청,031-580-2295,2021-06-28
상천제일자동차공업㈜,01,경기도 가평군 청평면 마지기길 17,경기도 가평군 청평면 하천리 230-19번지,37.748797,127.4326202,2012-03-05,2961.5,01,,,,,,,가평군청,031-580-2295,2021-06-28
명보카센타,03,경기도 가평군 가평읍 경춘로 2051,경기도 가평군 가평읍 하색리 63-2번지,37.8150974,127.501246,1998-10-08,467,01,,,,,,,가평군청,031-580-2295,2021-06-28
모던카써비스,03,경기도 가평군 청평면 경춘로 773,경기도 가평군 청평면 청평리 617-5번지,37.7358258,127.4142579,2007-06-21,436,01,,,,,,,가평군청,031-580-2295,2021-06-28
벧엘정비소(프로미카월드가평지점),03,경기도 가평군 가평읍 석봉로 123,경기도 가평군 가평읍 대곡리 261-10번지,37.8261257,127.5115766,2015-06-24,218,01,,,,,,,가평군청,031-580-2295,2021-06-28
붕붕카센타,03,경기도 가평군 가평읍 보납로18번길 17,경기도 가평군 가평읍 읍내리 479-1번지,37.8293446,127.5130754,1999-01-18,294.21,01,,,,,,,가평군청,031-580-2295,2021-06-28
설악자동차공업사,01,경기도 가평군 설악면 유명로 1708-12,경기도 가평군 설악면 선촌리 470-7번지,37.6776966,127.4810323,2005-05-03,1322.31,01,,,,,,,가평군청,031-580-2295,2021-06-28
스피드메이트청평점,03,경기도 가평군 청평면 구청평로 89,경기도 가평군 청평면 청평리 619-14번지,37.7351849,127.4145946,2017-03-17,913,01,,,,,,,가평군청,031-580-2295,2021-06-28
광선공업사,03,경기도 가평군 조종면 청군로 1174,경기도 가평군 조종면 현리 481-1번지,37.8100652,127.3524052,1999-03-29,198.34,01,,,,,,,가평군청,031-580-2295,2021-06-28
신천카센타,03,경기도 가평군 설악면 유명로 1727,경기도 가평군 설악면 선촌리 423-4번지,37.6761093,127.4791971,1998-10-08,1146,01,,,,,,,가평군청,031-580-2295,2021-06-28
쌍용자동차 청평 서비스 프라자,03,경기도 가평군 청평면 여울길 24,경기도 가평군 청평면 청평리 432-76번지,37.7375168,127.4201778,2012-01-12,406.61,01,,,,,,,가평군청,031-580-2295,2021-06-28
에덴카센타,03,경기도 가평군 청평면 경춘로 1454,경기도 가평군 청평면 상천리 256-5번지,37.7789934,127.4644758,1998-05-21,730,01,,,,,,,가평군청,031-580-2295,2021-06-28
유명카센타,03,경기도 가평군 설악면 유명로 1398-12,경기도 가평군 설악면 신천리 715-5번지,37.6565859,127.4813389,2005-06-08,662,01,,,,,,,가평군청,031-580-2295,2021-06-28
유진자동차공업사,03,경기도 가평군 설악면 자잠로 40,경기도 가평군 설악면 신천리 481-6번지,37.6805052,127.4904139,2005-12-30,661.15,01,,,,,,,가평군청,031-580-2295,2021-06-28
율길자동차공업사,03,경기도 가평군 상면 청군로 2045,경기도 가평군 상면 율길리 427번지,37.833382,127.2899927,2008-11-27,1909,01,,,,,,,가평군청,031-580-2295,2021-06-28
일단정지,03,경기도 가평군 가평읍 가평제방길 5,경기도 가평군 가평읍 대곡리 63-8번지,37.8177948,127.5151083,2007-01-16,202,01,,,,,,,가평군청,031-580-2295,2021-06-28
일심카센타,03,경기도 가평군 청평면 경춘로 878,경기도 가평군 청평면 청평리 326-1번지,37.7415766,127.423695,1999-08-03,744,01,,,,,,,가평군청,031-580-2295,2021-06-28
조은카센타,03,경기도 가평군 조종면 현창로 66,경기도 가평군 조종면 현리 302-1번지,37.8202352,127.3468199,2003-06-17,323,01,,,,,,,가평군청,031-580-2295,2021-06-28
조종카센타,03,경기도 가평군 조종면 청군로 1205,경기도 가평군 조종면 현리 477-93번지,37.8126207,127.3504526,1999-05-19,496,01,,,,,,,가평군청,031-580-2295,2021-06-28
진도공업사,03,경기도 가평군 가평읍 경춘로 1735-5,경기도 가평군 가평읍 상색리 315-1번지,37.7955173,127.477919,1998-12-30,1117,01,,,,,,,가평군청,031-580-2295,2021-06-28
청평밧데리,03,경기도 가평군 청평면 경춘로 766,경기도 가평군 청평면 청평리 619-38번지,37.7351067,127.4137888,1999-05-11,132.23,01,,,,,,,가평군청,031-580-2295,2021-06-28
춘천카센타,03,경기도 가평군 가평읍 보납로 38-2,경기도 가평군 가평읍 읍내리 410-1번지,37.8307881,127.5146869,1998-10-22,991.73,01,,,,,,,가평군청,031-580-2295,2021-06-28
카마스자동차종합관리 (매직카센타),03,경기도 가평군 가평읍 연인길 6-3,경기도 가평군 가평읍 읍내리 480-5번지,37.8285141,127.5134445,1998-11-06,221.48,01,,,,,,,가평군청,031-580-2295,2021-06-28
평화카센타,03,경기도 가평군 가평읍 보납로18번길 12,경기도 가평군 가평읍 읍내리 461-21번지,37.8298692,127.5126019,1998-10-14,363.63,01,,,,,,,가평군청,031-580-2295,2021-06-28
한일카센타,03,경기도 가평군 조종면 청군로 1311-9,경기도 가평군 조종면 현리 315-4번지,37.8204846,127.3447085,2001-09-26,689,01,,,,,,,가평군청,031-580-2295,2021-06-28
현대자동차청평점,03,경기도 가평군 청평면 경춘로 805-1,경기도 가평군 청평면 청평리 445-67번지,37.7376898,127.417093,1999-02-01,588.42,01,,,,,,,가평군청,031-580-2295,2021-06-28
화랑포카센타,03,경기도 가평군 청평면 경춘로 111,경기도 가평군 청평면 대성리 399-163번지,37.6854456,127.3788126,1998-11-06,99.17,01,,,,,,,가평군청,031-580-2295,2021-06-28
휠타이어 할인 판매점,03,경기도 가평군 조종면 청군로 1188,경기도 가평군 조종면 현리 477-159번지,37.8112288,127.3519564,2002-10-04,656,01,,,,,,,가평군청,031-580-2295,2021-06-28
가평상용현대서비스,01,경기도 가평군 상면 청군로 1990,경기도 가평군 상면 율길리 375-4번지,37.7996243,127.3150364,2019-11-22,10840,01,,,,,,,가평군청,031-580-2295,2021-06-28
광진자동차공업사,03,경기도 가평군 가평읍 경춘로 1879,경기도 가평군 가평읍 하색리 447-7번지,37.8039282,127.4898842,1998-10-08,247,01,,,,,,,가평군청,031-580-2295,2021-06-28
국제모터스,01,경기도 가평군 설악면 자잠로 53-30,경기도 가평군 설악면 신천리 520번지,37.6827778,127.4898846,2014-05-08,1634,01,,,,,,,가평군청,031-580-2295,2021-06-28
금호카센타,03,경기도 가평군 조종면 연인산로 2,경기도 가평군 조종면 현리 282번지,37.8213977,127.3498123,1998-11-09,92,01,,,,,,,가평군청,031-580-2295,2021-06-28
기아카클리닉청평점,03,경기도 가평군 청평면 경춘로 789-1,경기도 가평군 청평면 청평리 441-15번지,37.7366586,127.4157032,2000-10-27,426,01,,,,,,,가평군청,031-580-2295,2021-06-28
넘버원카테크,03,경기도 가평군 가평읍 가화로 173-15,경기도 가평군 가평읍 읍내리 680-5번지,37.8344025,127.510134,1994-11-02,595.04,01,,,,,,,가평군청,031-580-2295,2021-06-28
대창공업사,03,경기도 가평군 북면 가화로 1007,경기도 가평군 북면 목동리 840-19번지,37.8855921,127.5486794,2003-05-21,495.86,01,,,,,,,가평군청,031-580-2295,2021-06-28
덕현자동차공업사,03,경기도 가평군 상면 광신길 1,경기도 가평군 상면 덕현리 391-5번지,37.7613826,127.3940063,2011-07-19,124.98,01,,,,,,,가평군청,031-580-2295,2021-06-28
만능카센타,03,경기도 가평군 가평읍 가화로 33,경기도 가평군 가평읍 대곡리 217번지,37.8227378,127.5158239,2007-06-27,487,01,,,,,,,가평군청,031-580-2295,2021-06-28
대영카써비스,03,경기도 가평군 가평읍 중촌로 9,경기도 가평군 가평읍 읍내리 602-1번지,37.8328763,127.5088854,1998-12-18,472.72,01,,,,,,,가평군청,031-580-2295,2021-06-28
동신자동차공업사,02,경기도 가평군 가평읍 보납로 32,경기도 가평군 가평읍 읍내리 408-2번지,37.8307101,127.5139708,2001-10-24,1579,01,,,,,,,가평군청,031-580-2295,2021-06-28
명석카센타,03,경기도 가평군 가평읍 가화로 173-21,경기도 가평군 가평읍 읍내리 680-3번지,37.8342866,127.5098606,2004-04-16,155,01,,,,,,,가평군청,031-580-2295,2021-06-28
베스트카센타,03,경기도 가평군 가평읍 석봉로 235,경기도 가평군 가평읍 읍내리 672-2번지,37.8357613,127.5084166,2007-01-22,495.86,01,,,,,,,가평군청,031-580-2295,2021-06-28
설악 그린카 써비스,03,경기도 가평군 설악면 신천중앙로 17,경기도 가평군 설악면 신천리 348-1번지,37.6717765,127.4900281,2008-10-29,504,01,,,,,,,가평군청,031-580-2295,2021-06-28
승리카세차장,03,경기도 가평군 가평읍 석봉로 204,경기도 가평군 가평읍 읍내리 615-3번지,37.8330073,127.5098518,1999-08-26,320.66,01,,,,,,,가평군청,031-580-2295,2021-06-28
신안공업사,03,경기도 가평군 청평면 경춘로 964,경기도 가평군 청평면 하천리 493-1번지,37.7476553,127.4294479,1999-08-03,330.57,01,,,,,,,가평군청,031-580-2295,2021-06-28
애니카랜드 가평점,03,경기도 가평군 가평읍 자라섬로 31,경기도 가평군 가평읍 대곡리 42-2번지,37.820486,127.5177732,2003-07-02,577,01,,,,,,,가평군청,031-580-2295,2021-06-28
차박사카서비스,03,경기도 가평군 청평면 강변로 41,경기도 가평군 청평면 청평리 83-14번지,37.7340778,127.4168687,2004-06-10,330.57,01,,,,,,,가평군청,031-580-2295,2021-06-28
종합카써비스,03,경기도 가평군 청평면 구청평로 86,경기도 가평군 청평면 청평리 619-41번지,37.7346613,127.414898,1999-03-02,152.06,01,,,,,,,가평군청,031-580-2295,2021-06-28
테크원모터스㈜,01,경기도 가평군 가평읍 태봉두밀로 34-73,경기도 가평군 가평읍 상색리 171-14번지,37.8042645,127.4870022,2006-01-23,3184,01,,,,,,,가평군청,031-580-2295,2021-06-28
합동자동차공업사,02,경기도 가평군 조종면 청군로 1213,경기도 가평군 조종면 현리 477-8번지,37.8137577,127.349822,1997-05-16,1724,01,,,,,,,가평군청,031-580-2295,2021-06-28
현리맥가이버카,03,경기도 가평군 조종면 청군로 1188-5,경기도 가평군 조종면 현리 477-101번지,37.8114272,127.3518665,2008-06-16,597,01,,,,,,,가평군청,031-580-2295,2021-06-28
모터플랜,03,경기도 가평군 가평읍 연인길 6-3,경기도 가평군 가평읍 읍내리 480-5번지,37.828547,127.5113154,2019-08-13,208,01,,,,,,,가평군청,031-580-2295,2021-06-28
가평경춘카센타,03,경기도 가평군 가평읍 호반로 2626,경기도 가평군 가평읍 대곡리 103-3번지,37.8201245,127.5138864,1998-10-29,462.81,01,,,,,,,가평군청,031-580-2295,2021-06-28
가평점 기아오토큐,03,경기도 가평군 가평읍 가화로 255,경기도 가평군 가평읍 승안리 11-36번지,37.8407357,127.5060194,2017-01-11,826,01,,,,,,,가평군청,031-580-2295,2021-06-28
강남모터스,03,경기도 가평군 설악면 신천중앙로 30,경기도 가평군 설악면 신천리 363-8번지,37.6722219,127.4912551,2012-06-08,190.83,01,,,,,,,가평군청,031-580-2295,2021-06-28
OK카센타,03,경기도 가평군 가평읍 보납로 36,경기도 가평군 가평읍 읍내리 408-8번지,37.830762,127.5144709,1998-10-22,132,01,,,,,,,가평군청,031-580-2295,2021-06-28
헬로우 모터스,03,경기도 고양시 일산동구 산두로 242,경기도 고양시 일산동구 정발산동 1114-6번지,37.67669375,126.7779824,2002-09-10,128,01,,,,,,031-917-5521,경기도 고양시 일산동구청,031-8075-6342,2020-05-15
김박사카,03,경기도 고양시 일산동구 일산로330번길 44,경기도 고양시 일산동구 마두동 832-1번지,37.6655463,126.7865298,2002-09-05,105,01,,,,,,031-901-6224,경기도 고양시 일산동구청,031-8075-6342,2020-05-15
현대자동차정발산점,03,경기도 고양시 일산동구 일산로441번길 81,경기도 고양시 일산동구 정발산동 1181번지,37.67003608,126.7754504,2002-09-30,157,01,,,,,,031-914-0539,경기도 고양시 일산동구청,031-8075-6342,2020-05-15
한일카센타,03,경기도 고양시 일산동구 장항로 297-21,경기도 고양시 일산동구 장항동 566-11번지,37.64272835,126.767842,1999-10-26,73,01,,,,,,031-905-5559,경기도 고양시 일산동구청,031-8075-6342,2020-05-15
풍동오토써비스,03,경기도 고양시 일산동구 고풍로43번길 36-20,경기도 고양시 일산동구 풍동 1061번지,37.66101984,126.7932336,1999-12-07,98,01,,,,,,031-901-5887,경기도 고양시 일산동구청,031-8075-6342,2020-05-15
평화자동차공업사,03,경기도 고양시 일산동구 장항로 333,경기도 고양시 일산동구 장항동 543-13번지,37.64468101,126.7632886,2000-01-13,132,01,,,,,,031-905-7485,경기도 고양시 일산동구청,031-8075-6342,2020-05-15
그린오토카,03,경기도 고양시 일산동구 경의로 375-47,경기도 고양시 일산동구 마두동 863-7번지,37.66266518,126.7902488,2000-01-27,93,01,,,,,,031-902-7307,경기도 고양시 일산동구청,031-8075-6342,2020-05-15
유로카써비스,03,경기도 고양시 일산동구 일산로 283,경기도 고양시 일산동구 마두동 923번지,37.66099804,126.7858331,2000-02-09,71,01,,,,,,031-907-0331,경기도 고양시 일산동구청,031-8075-6342,2020-05-15
원자동차공업사,03,경기도 고양시 일산동구 산두로 9-2,경기도 고양시 일산동구 마두동 910-3번지,37.66059617,126.7879363,2000-04-27,105,01,,,,,,031-901-6635,경기도 고양시 일산동구청,031-8075-6342,2020-05-15
청화카드라이브,03,경기도 고양시 일산동구 장항로 249,경기도 고양시 일산동구 장항동 578-20번지,37.64173544,126.7719941,2000-07-11,129,01,,,,,,031-906-3692,경기도 고양시 일산동구청,031-8075-6342,2020-05-15
경도공업사,03,경기도 고양시 일산동구 성현로 415-7,경기도 고양시 일산동구 문봉동 51번지,37.70058499,126.829198,2000-10-06,91,01,,,,,,031-977-0117,경기도 고양시 일산동구청,031-8075-6342,2020-05-15
문봉 자동차,03,경기도 고양시 일산동구 지영로 1,경기도 고양시 일산동구 문봉동 58-16번지,37.70209573,126.8252733,2000-11-10,401,01,,,,,,031-977-7115,경기도 고양시 일산동구청,031-8075-6342,2020-05-15
정현모터스 그린카랜드,03,경기도 고양시 일산동구 대산로31번길 41,경기도 고양시 일산동구 정발산동 694-10번지,37.6686572,126.7719479,2000-11-24,73,01,,,,,,031-913-2929,경기도 고양시 일산동구청,031-8075-6342,2020-05-15
일산중부점 기아 오토큐,03,경기도 고양시 일산동구 일산로428번길 31,경기도 고양시 일산동구 정발산동 1226-9번지,37.67395951,126.7801923,2001-01-16,82,01,,,,,,031-917-3399,경기도 고양시 일산동구청,031-8075-6342,2020-05-15
오미산3급경정비,03,경기도 고양시 일산동구 성현로 7,경기도 고양시 일산동구 성석동 1256-1번지,37.71013598,126.7878541,2001-02-01,70,01,,,,,,031-977-5744,경기도 고양시 일산동구청,031-8075-6342,2020-05-15
한국지엠백석바로서비스,03,경기도 고양시 일산동구 강송로73번길 7-25,경기도 고양시 일산동구 백석동 1248-2번지,37.64556631,126.7904806,2001-05-22,93,01,,,,,,031-904-8256,경기도 고양시 일산동구청,031-8075-6342,2020-05-15
쌍용자동차일산서비스프라자,03,경기도 고양시 일산동구 고양대로1119번길 41,경기도 고양시 일산동구 식사동 504-5번지,37.66598249,126.8161851,2001-07-25,135,01,,,,,,031-967-6255,경기도 고양시 일산동구청,031-8075-6342,2020-05-15
대광카센타,03,경기도 고양시 일산동구 일산로 207,경기도 고양시 일산동구 마두동 737-3번지,37.65470138,126.7894826,2001-09-03,76,01,,,,,,031-901-9955,경기도 고양시 일산동구청,031-8075-6342,2020-05-15
세진자동차정비센터,03,경기도 고양시 일산동구 고양대로1080번길 54,경기도 고양시 일산동구 식사동 603-28번지,37.66701259,126.8084158,2001-01-05,108,01,,,,,,031-969-0614,경기도 고양시 일산동구청,031-8075-6342,2020-05-15
삼마모터스,02,경기도 고양시 일산동구 성현로135번길 78,경기도 고양시 일산동구 성석동 1035-2번지,37.71135253,126.7987586,2011-08-23,440.5,01,,,,,,031-977-9133,경기도 고양시 일산동구청,031-8075-6342,2020-05-15
오대양공업사,02,경기도 고양시 일산동구 성현로431번길 73-17,경기도 고양시 일산동구 문봉동 16-8번지,37.70001645,126.8345707,2012-01-13,621,01,,,,,,031-966-7546,경기도 고양시 일산동구청,031-8075-6342,2020-05-15
천우모터스㈜,02,경기도 고양시 일산동구 백마로 512,경기도 고양시 일산동구 풍동 118번지,37.66268918,126.804994,2012-05-11,3293,01,,,,,,031-961-0500,경기도 고양시 일산동구청,031-8075-6342,2020-05-15
프리미어오토모빌㈜,02,경기도 고양시 일산동구 백마로 522,경기도 고양시 일산동구 풍동 114-2번지,37.6632838,126.8058799,2012-08-07,683.23,01,,,,,,031-919-3800,경기도 고양시 일산동구청,031-8075-6342,2020-05-15
서울상사 복지자동차 정비센타,03,경기도 고양시 덕양구 화랑로 118,경기도 고양시 덕양구 화전동 512-1번지,37.60834199,126.8694913,2012-08-31,180.72,01,,,,,,1577-0355,경기도 고양시 덕양구청,031-8075-5342,2020-05-15
오토오아시스 관산점,03,경기도 고양시 덕양구 통일로 1032,경기도 고양시 덕양구 관산동 685-79번지,37.70822028,126.8563246,2012-09-24,116.57,01,,,,,,031-966-0841,경기도 고양시 덕양구청,031-8075-5342,2020-05-15
기아오토큐 삼송점,03,경기도 고양시 덕양구 삼송로 140,경기도 고양시 덕양구 삼송동 135-2번지,37.65218282,126.8895583,2012-12-06,200,01,,,,,,02-381-5777,경기도 고양시 덕양구청,031-8075-5342,2020-05-15
명성자동차공업사,03,경기도 고양시 덕양구 흥도로 53,경기도 고양시 덕양구 화전동 455-12번지,37.61386757,126.8669038,2013-02-18,83.9,01,,,,,,02-388-4680,경기도 고양시 덕양구청,031-8075-5342,2020-05-15
대성모터스,03,경기도 고양시 덕양구 도내로 80,경기도 고양시 덕양구 도내동 826-3번지,37.62635611,126.8553858,2013-05-29,179.5,01,,,,,,031-938-2014,경기도 고양시 덕양구청,031-8075-5342,2020-05-15
애니카랜드 삼송점,03,경기도 고양시 덕양구 삼송로 247,경기도 고양시 덕양구 지축동 765-269번지,37.65393417,126.9015951,2013-05-31,102.6,01,,,,,,02-371-7155,경기도 고양시 덕양구청,031-8075-5342,2020-05-15
국일상사,03,경기도 고양시 덕양구 화랑로 183,경기도 고양시 덕양구 화전동 430-1번지,37.61370111,126.8728778,2013-08-12,55,01,,,,,,02-3159-1959,경기도 고양시 덕양구청,031-8075-5342,2020-05-15
경일자동차공업사,03,경기도 고양시 덕양구 통일로 763,경기도 고양시 덕양구 관산동 188-1번지,37.6873356,126.8654212,2013-11-27,34.4,01,,,,,,031-962-8973,경기도 고양시 덕양구청,031-8075-5342,2020-05-15
코리아 모터스(Korea motors),03,경기도 고양시 덕양구 통일로 91-1,경기도 고양시 덕양구 동산동 9-2번지,37.64676172,126.9052215,2014-02-13,48.3,01,,,,,,070-8808-4487,경기도 고양시 덕양구청,031-8075-5342,2020-05-15
78 모터스,03,경기도 고양시 덕양구 혜음로 221,경기도 고양시 덕양구 벽제동 447-1번지,37.7197243485,126.8983141967,2014-04-18,149,01,,,,,,031-964-6372,경기도 고양시 덕양구청,031-8075-5342,2020-05-15
통일로점 현대자동차,03,경기도 고양시 덕양구 통일로 1020,경기도 고양시 덕양구 관산동 685-60번지,37.70705344,126.8569982,2014-05-16,167.4,01,,,,,,031-969-7307,경기도 고양시 덕양구청,031-8075-5342,2020-05-15
블루모터스,03,경기도 고양시 덕양구 동산1로 4,경기도 고양시 덕양구 동산동 358-8번지,37.64343326,126.8865891,2014-05-20,274.5,01,,,,,,02-371-0088,경기도 고양시 덕양구청,031-8075-5342,2020-05-15
강촌현대자동차공업사,02,경기도 고양시 일산동구 장대길 145-5,경기도 고양시 일산동구 장항동 549-2번지,37.64086313,126.7618014,1998-11-06,500,01,,,,,,031-903-3866,경기도 고양시 일산동구청,031-8075-6342,2020-05-15
올리브자동차정비공업사,02,경기도 고양시 일산동구 고양대로 1072,경기도 고양시 일산동구 식사동 609-6번지,37.66923275,126.8096726,2003-01-22,418,01,,,,,,031-969-1472,경기도 고양시 일산동구청,031-8075-6342,2020-05-15
태성자동차공업사,02,경기도 고양시 일산동구 은마길 31-24,경기도 고양시 일산동구 성석동 518-1번지,37.71150839,126.806128,2013-06-26,1409,01,,,,,,,경기도 고양시 일산동구청,031-8075-6342,2020-05-15
양지자동차공업사,02,경기도 고양시 일산동구 멱절길 368-30,경기도 고양시 일산동구 장항동 653-4번지,37.65410803,126.760084,2006-03-22,495,01,,,,,,031-932-5200,경기도 고양시 일산동구청,031-8075-6342,2020-05-15
엠케이모터스,02,경기도 고양시 일산동구 성현로135번안길 117-32,경기도 고양시 일산동구 성석동 1043-21번지,37.71353815,126.7983831,2008-04-24,660,01,,,,,,031-977-4145,경기도 고양시 일산동구청,031-8075-6342,2020-05-15
㈜마일레오토모빌,02,경기도 고양시 일산동구 성석로 188,경기도 고양시 일산동구 성석동 756-5번지,37.69337011,126.7980393,2008-10-28,999,01,,,,,,031-977-2300,경기도 고양시 일산동구청,031-8075-6342,2020-05-15
SC MOTORS,02,경기도 고양시 일산동구 성석로 44,경기도 고양시 일산동구 중산동 10번지,37.68394246,126.791559,2008-11-24,496.96,01,,,,,,031-975-6005,경기도 고양시 일산동구청,031-8075-6342,2020-05-15
MTS KOREA,02,경기도 고양시 일산동구 지영로 54,경기도 고양시 일산동구 지영동 374-9번지,37.70614803,126.8241434,2009-11-23,535.38,01,,,,,,031-975-0020,경기도 고양시 일산동구청,031-8075-6342,2020-05-15
주영공업사,02,경기도 고양시 일산동구 장항로225번길 25,경기도 고양시 일산동구 장항동 591번지,37.64090929,126.7731295,2009-12-08,1058,01,,,,,,031-907-8171,경기도 고양시 일산동구청,031-8075-6342,2020-05-15
㈜베스트토요타 일산서비스,02,경기도 고양시 일산동구 동국로 112,경기도 고양시 일산동구 식사동 789-8번지,37.68175966,126.8037135,2010-04-07,4861.22,01,,,,,,031-969-7701,경기도 고양시 일산동구청,031-8075-6342,2020-05-15
뉴나인모터스,02,경기도 고양시 일산동구 은마길63번길 16,경기도 고양시 일산동구 설문동 512-2번지,37.71389739,126.8065887,2010-06-29,580,01,,,,,,031-976-9573,경기도 고양시 일산동구청,031-8075-6342,2020-05-15
유진카트로닉,03,경기도 고양시 덕양구 마상로 176,경기도 고양시 덕양구 성사동 488-27번지,37.6573504,126.8416992,2006-11-21,72.1,01,,,,,,031-969-5633,경기도 고양시 덕양구청,031-8075-5342,2020-05-15
덕은카공업사,03,경기도 고양시 덕양구 대덕로 158-2,경기도 고양시 덕양구 현천동 260-7번지,37.59428437,126.8643615,2007-07-29,136,01,,,,,,02-372-8407,경기도 고양시 덕양구청,031-8075-5342,2020-05-15
현대자동차공업사,03,경기도 고양시 덕양구 덕은로 40,경기도 고양시 덕양구 덕은동 201-2번지,37.58660649,126.876173,2008-01-17,98.04,01,,,,,,02-3159-2050,경기도 고양시 덕양구청,031-8075-5342,2020-05-15
NIIA(舊상승모터스),03,경기도 고양시 덕양구 중앙로152번길 3,경기도 고양시 덕양구 화전동 203-170번지,37.60194232,126.8716643,2008-02-15,89.05,01,,,,,,02-3159-8256,경기도 고양시 덕양구청,031-8075-5342,2020-05-15
MOBILI카클리닉,03,경기도 고양시 덕양구 은빛로17번길 10,경기도 고양시 덕양구 화정동 928-17번지,37.63870897,126.8299737,2008-04-17,116.22,01,,,,,,031-967-3037,경기도 고양시 덕양구청,031-8075-5342,2020-05-15
덕은카센터,03,경기도 고양시 덕양구 중앙로64번길 92,경기도 고양시 덕양구 화전동 168-2번지,37.59922311,126.8753549,2008-04-24,70.05,01,,,,,,02-3159-8183,경기도 고양시 덕양구청,031-8075-5342,2020-05-15
산성카서비스,03,경기도 고양시 덕양구 행주로15번길 5,경기도 고양시 덕양구 행주내동 127-14번지,37.60103066,126.8281434,2008-08-22,81.76,01,,,,,,031-938-8800,경기도 고양시 덕양구청,031-8075-5342,2020-05-15
한국타이어 T-station 벽제관산점,03,경기도 고양시 덕양구 통일로 1009,경기도 고양시 덕양구 관산동 691-1번지,37.70583133,126.8566785,2008-10-27,225.4,03,2019-05-02,,,,,031-962-7022,경기도 고양시 덕양구청,031-8075-5342,2020-05-15
전국택시복지매장 서오릉정비소,03,경기도 고양시 덕양구 용두로 53,경기도 고양시 덕양구 용두동 295-2번지,37.62302846,126.887336,2008-12-03,233.28,01,,,,,,02-3157-1555,경기도 고양시 덕양구청,031-8075-5342,2020-05-15
현천리자동차공업사,03,경기도 고양시 덕양구 대덕로 86,경기도 고양시 덕양구 현천동 37-5번지,37.59280443,126.8719732,2008-12-08,154,01,,,,,,02-3158-1088,경기도 고양시 덕양구청,031-8075-5342,2020-05-15
삼성카공업사,03,경기도 고양시 덕양구 호수로71번길 126,경기도 고양시 덕양구 토당동 657-13번지,37.62232104,126.8060784,2008-12-08,209.1,01,,,,,,031-971-3786,경기도 고양시 덕양구청,031-8075-5342,2020-05-15
수효자동차,03,경기도 고양시 덕양구 화랑로 36-1,경기도 고양시 덕양구 화전동 576-36번지,37.60203266,126.8705759,2008-12-29,76.59,01,,,,,,02-3159-1630,경기도 고양시 덕양구청,031-8075-5342,2020-05-15
자동차카마을,03,경기도 고양시 덕양구 통일로 1044,경기도 고양시 덕양구 관산동 675-2번지,37.70860124,126.855462,2009-02-09,83.6,01,,,,,,031-962-3060,경기도 고양시 덕양구청,031-8075-5342,2020-05-15
우리종합카센타,03,경기도 고양시 덕양구 고골길 28,경기도 고양시 덕양구 관산동 685-88번지,37.71028633,126.8571599,2009-02-20,131.04,01,,,,,,031-976-9258,경기도 고양시 덕양구청,031-8075-5342,2020-05-15
고양점 기아오토큐,03,경기도 고양시 덕양구 혜음로 17-11,경기도 고양시 덕양구 고양동 240-42번지,37.70217928,126.9010052,2009-04-13,148.5,01,,,,,,031-962-8538,경기도 고양시 덕양구청,031-8075-5342,2020-05-15
신동자동변속기,03,경기도 고양시 덕양구 통일로1102번길 32,경기도 고양시 덕양구 내유동 296-2번지,37.71193981,126.8536500237,2009-12-22,198,01,,,,,,031-948-4785,경기도 고양시 덕양구청,031-8075-5342,2020-05-15
타이어프로 원당점,03,경기도 고양시 덕양구 대주로 510,경기도 고양시 덕양구 주교동 218-7번지,37.65771319,126.8270426,2010-04-01,196.89,01,,,,,,031-962-9442,경기도 고양시 덕양구청,031-8075-5342,2020-05-15
성사카센타,03,경기도 고양시 덕양구 고양대로1395번길 12-5,경기도 고양시 덕양구 성사동 706-9번지,37.65456915,126.8397604,2010-07-05,72.72,03,2018-03-15,,,,,031-963-5771,경기도 고양시 덕양구청,031-8075-5342,2020-05-15
삼영자동차공업사,03,경기도 고양시 덕양구 용두로 105,경기도 고양시 덕양구 용두동 111-1번지,37.620402,126.8920702,2010-07-07,117.9,03,2019-11-05,,,,,02-387-0086,경기도 고양시 덕양구청,031-8075-5342,2020-05-15
에이스카모터스,02,경기도 고양시 일산동구 견달산로225번길 21-29,경기도 고양시 일산동구 식사동 294-7번지,37.6856411,126.8178344,2001-07-18,496,01,,,,,,031-966-8280,경기도 고양시 일산동구청,031-8075-6342,2020-05-15
동주모터스,02,경기도 고양시 일산동구 성현로135번안길 93,경기도 고양시 일산동구 성석동 1043-5번지,37.71326626,126.799998,2002-01-14,735,01,,,,,,031-977-0951,경기도 고양시 일산동구청,031-8075-6342,2020-05-15
㈜세형공업사,01,경기도 고양시 일산동구 지영로194번길 4,경기도 고양시 일산동구 지영동 304-6번지,37.71368171,126.8287994,2008-05-20,1222.2,01,,,,,,031-976-8888,경기도 고양시 일산동구청,031-8075-6342,2020-05-15
21세기현대기아자동차회사,01,경기도 고양시 일산동구 고양대로 900-26,경기도 고양시 일산동구 풍동 638-21번지,37.67733775,126.7950555,2009-09-15,5916.3,01,,,,,,031-903-9955,경기도 고양시 일산동구청,031-8075-6342,2020-05-15
씨제이대한통운㈜,01,경기도 고양시 일산동구 성현로 615,경기도 고양시 일산동구 사리현동 151-1번지,37.69640218,126.8491413,2009-09-23,9828,01,,,,,,031-963-3098,경기도 고양시 일산동구청,031-8075-6342,2020-05-15
㈜오미산오토랜드,01,경기도 고양시 일산동구 성현로 13,경기도 고양시 일산동구 성석동 1242-2번지,37.70997918,126.788687,2009-10-01,5104,01,,,,,,031-977-5651,경기도 고양시 일산동구청,031-8075-6342,2020-05-15
제니스오토,02,경기도 고양시 일산동구 성현로 49,경기도 고양시 일산동구 성석동 984-6번지,37.7088149,126.7928908,2000-10-12,453,01,,,,,,031-977-5505,경기도 고양시 일산동구청,031-8075-6342,2020-05-15
SMART MOTORS,03,경기도 고양시 일산서구 송산로 397,경기도 고양시 일산서구 가좌동 202-6번지,37.68558426,126.7230037,2005-01-24,160,01,,,,,,031-925-8290,경기도 고양시 일산서구청,031-8075-7348,2020-05-15
가좌사랑자동차공업사,03,경기도 고양시 일산서구 가좌로 14,경기도 고양시 일산서구 가좌동 145번지,37.69069375,126.7241865,2009-05-20,607,01,,,,,,031-923-8255,경기도 고양시 일산서구청,031-8075-7348,2020-05-15
㈜제이제이모터스,02,경기도 고양시 일산서구 대화2로 17-49,경기도 고양시 일산서구 법곳동 751-9번지,37.66671626,126.7269773,2000-05-02,947,01,,,,,,031-919-8333,경기도 고양시 일산서구청,031-8075-7348,2020-05-15
달구지카크리닉,03,경기도 고양시 일산서구 덕이로 177-1,경기도 고양시 일산서구 덕이동 855-6번지,37.69359579,126.740462,1998-08-27,138,01,,,,,,031-916-6373,경기도 고양시 일산서구청,031-8075-7348,2020-05-15
대흥자동차경정비,03,경기도 고양시 일산서구 강성로214번길 8-2,경기도 고양시 일산서구 대화동 2172번지,37.67497692,126.7533767,1997-06-23,231,01,,,,,,031-918-7070,경기도 고양시 일산서구청,031-8075-7348,2020-05-15
더디젤,03,경기도 고양시 일산서구 덕이로 30-30,경기도 고양시 일산서구 덕이동 473번지,37.690741,126.756304,2020-01-06,100,01,,,,,,031-926-3170,경기도 고양시 일산서구청,031-8075-7348,2020-05-15
동양카센터,03,경기도 고양시 일산서구 일산로636번길 7-20,경기도 고양시 일산서구 대화동 2027-17번지,37.6827274,126.757863,2009-09-21,263,01,,,,,,031-915-3070,경기도 고양시 일산서구청,031-8075-7348,2020-05-15
라이프오토카,03,경기도 고양시 일산서구 현중로36번길 31,경기도 고양시 일산서구 탄현동 1490번지,37.69448887,126.7696213,2006-09-29,113,01,,,,,,031-915-2563,경기도 고양시 일산서구청,031-8075-7348,2020-05-15
르노삼성자동차 지정정비코너 덕이점,03,경기도 고양시 일산서구 경의로 835-10,경기도 고양시 일산서구 덕이동 261번지,37.6916919,126.7586412,2018-12-28,456,01,,,,,,031-921-3330,경기도 고양시 일산서구청,031-8075-7348,2020-05-15
강서카인테리어,03,경기도 고양시 일산서구 현중로26번길 61-2,경기도 고양시 일산서구 탄현동 1503-12번지,37.69376462,126.7715465,1998-10-12,105,01,,,,,,031-915-8692,경기도 고양시 일산서구청,031-8075-7348,2020-05-15
봉봉자동차정비공업사,03,경기도 고양시 일산서구 대화로398번길 7-1,경기도 고양시 일산서구 대화동 2087번지,37.68249654,126.7525492,2009-01-05,100,01,,,,,,031-916-0394,경기도 고양시 일산서구청,031-8075-7348,2020-05-15
상진휠얼라이먼트,03,경기도 고양시 일산서구 덕이로 30-7,경기도 고양시 일산서구 덕이동 459-1번지,37.6897147,126.7557905,2011-09-05,232,01,,,,,,031-912-4145,경기도 고양시 일산서구청,031-8075-7348,2020-05-15
선명자동차써비스,03,경기도 고양시 일산서구 덕산로 132,경기도 고양시 일산서구 가좌동 474-4번지,37.69384245,126.7176258,2001-07-26,108,01,,,,,,031-923-8272,경기도 고양시 일산서구청,031-8075-7348,2020-05-15
송포 모터스,03,경기도 고양시 일산서구 송산로 376,경기도 고양시 일산서구 가좌동 307-12번지,37.68469562,126.7205945,1997-12-04,85,01,,,,,,,경기도 고양시 일산서구청,031-8075-7348,2020-05-15
에바다자동차공업사,03,경기도 고양시 덕양구 용두로 105,경기도 고양시 덕양구 용두동 111-1번지,37.6204020042,126.8920701641,2010-08-02,117.9,01,,,,,,02-354-0587,경기도 고양시 덕양구청,031-8075-5342,2020-05-15
대일자동차,03,경기도 고양시 덕양구 화랑로 143,경기도 고양시 덕양구 화전동 367-1번지,37.61031499,126.8709738,2010-08-12,116.34,01,,,,,,02-3159-9277,경기도 고양시 덕양구청,031-8075-5342,2020-05-15
한일오토밋숀,03,경기도 고양시 덕양구 토당로104번길 58,경기도 고양시 덕양구 토당동 53-4번지,37.62452097,126.8207127,2010-11-11,122.41,01,,,,,,031-974-2718,경기도 고양시 덕양구청,031-8075-5342,2020-05-15
로드킹(구 애니카랜드 행신가라뫼점),03,경기도 고양시 덕양구 행주로83번길 65-2,경기도 고양시 덕양구 행주내동 504-1번지,37.6068361,126.8205241,2011-03-09,198.36,03,2019-03-05,,,,,031-973-8181,경기도 고양시 덕양구청,031-8075-5342,2020-05-15
삼송자동차공업사,03,경기도 고양시 덕양구 고양대로 1902,경기도 고양시 덕양구 동산동 160-11번지,37.6436355,126.8908582,2011-06-08,78.35,01,,,,,,02-355-7710,경기도 고양시 덕양구청,031-8075-5342,2020-05-15
강매자동차공업사,03,경기도 고양시 덕양구 강매로 254,경기도 고양시 덕양구 강매동 93번지,37.60909128,126.8453486,2011-07-08,118.99,01,,,,,,031-979-5311,경기도 고양시 덕양구청,031-8075-5342,2020-05-15
달인카공업사,03,경기도 고양시 덕양구 원당로59번길 11-15,경기도 고양시 덕양구 주교동 599-26번지,37.65783986,126.8333617,2011-08-31,87.5,01,,,,,,031-962-8052,경기도 고양시 덕양구청,031-8075-5342,2020-05-15
유로카 T.C.S,03,경기도 고양시 덕양구 통일로493번길 21-14,경기도 고양시 덕양구 대자동 263-10번지,37.67645894,126.8858813,2012-02-10,165.6,01,,,,,,070-4209-7113,경기도 고양시 덕양구청,031-8075-5342,2020-05-15
용정카센타,03,경기도 고양시 덕양구 무원로6번길 45,경기도 고양시 덕양구 행신동 713-2번지,37.61452028,126.833182,2012-04-27,99.75,01,,,,,,031-966-0272,경기도 고양시 덕양구청,031-8075-5342,2020-05-15
㈜월드그린공업사,01,경기도 고양시 일산동구 견달산로 287,경기도 고양시 일산동구 식사동 268-9번지,37.69165121,126.8187709,2010-08-05,1021.22,01,,,,,,031-968-6611,경기도 고양시 일산동구청,031-8075-6342,2020-05-15
현대1급일산동부공업사,01,경기도 고양시 일산동구 공릉천로 243,경기도 고양시 일산동구 사리현동 352-15번지,37.71402426,126.841599,2010-09-29,1015,01,,,,,,031-913-1250,경기도 고양시 일산동구청,031-8075-6342,2020-05-15
한미모터스,01,경기도 고양시 일산동구 문봉길62번길 21,경기도 고양시 일산동구 문봉동 214-4번지,37.70632734,126.8159413,2010-10-20,1150,01,,,,,,031-977-8033,경기도 고양시 일산동구청,031-8075-6342,2020-05-15
㈜바바리안모터스,01,경기도 고양시 일산동구 무궁화로 383,경기도 고양시 일산동구 식사동 825-10번지,37.67877271,126.8014828,2011-06-21,6955,01,,,,,,031-966-7501,경기도 고양시 일산동구청,031-8075-6342,2020-05-15
BM모터스,01,경기도 고양시 일산동구 고봉로 833-1,경기도 고양시 일산동구 설문동 597번지,37.7272619,126.7985246,2011-09-26,1517,01,,,,,,031-977-0977,경기도 고양시 일산동구청,031-8075-6342,2020-05-15
인선모터스 주식회사(일산),01,경기도 고양시 일산동구 동국로 286,경기도 고양시 일산동구 식사동 273-1번지,37.6911400029,126.816362,2014-06-30,3755,01,,,,,,031-969-1500,경기도 고양시 일산동구청,031-8075-6342,2020-05-15
엄지모터스,01,경기도 고양시 일산동구 견달산로 207-5,경기도 고양시 일산동구 식사동 1173번지,37.68447644,126.8203018,2014-12-29,1032,01,,,,,,,경기도 고양시 일산동구청,031-8075-6342,2020-05-15
주식회사 레드베어스,01,경기도 고양시 일산동구 견달산로 230-1,경기도 고양시 일산동구 식사동 245-6번지,37.68654805,126.8206724,2015-06-05,1597,01,,,,,,031-966-4972,경기도 고양시 일산동구청,031-8075-6342,2020-05-15
㈜명진자동차,01,경기도 고양시 일산동구 성현로 363,경기도 고양시 일산동구 문봉동 168-56번지,37.7026601,126.8240397,2016-01-11,2632,01,,,,,,031-977-4850,경기도 고양시 일산동구청,031-8075-6342,2020-05-15
중산자동차,01,경기도 고양시 일산동구 고봉로531번길 29,경기도 고양시 일산동구 성석동 1526-10번지,37.70588877,126.7808265,2016-03-30,1413,01,,,,,,031-977-4733,경기도 고양시 일산동구청,031-8075-6342,2020-05-15
㈜윤기모터스,01,경기도 고양시 일산동구 은마길 25,경기도 고양시 일산동구 성석동 494-7번지,37.71098518,126.8078489,2016-05-19,1790,01,,,,,,,경기도 고양시 일산동구청,031-8075-6342,2020-05-15
고양자동차공업사,01,경기도 고양시 일산동구 공릉천로 326,경기도 고양시 일산동구 지영동 1-36번지,37.7206752,126.8362551,2016-12-19,1378,01,,,,,,,경기도 고양시 일산동구청,031-8075-6342,2020-05-15
원마인드모터스,01,경기도 고양시 일산동구 견달산로 178-55,경기도 고양시 일산동구 식사동 166-1번지,37.68222492,126.822208,2017-03-07,1803,01,,,,,,031-977-5970,경기도 고양시 일산동구청,031-8075-6342,2020-05-15
S2G모터스,01,경기도 고양시 일산동구 고양대로 864-33,경기도 고양시 일산동구 중산동 35-2번지,37.6787165,126.7905916,2018-02-28,1100,01,,,,,,031-922-3092,경기도 고양시 일산동구청,031-8075-6342,2020-05-15
한국지엠동일산서비스주식회사,01,경기도 고양시 일산동구 성현로 195,경기도 고양시 일산동구 성석동 492-5번지,37.70909906,126.807845,2008-11-12,3559.03,01,,,,,,031-977-8779,경기도 고양시 일산동구청,031-8075-6342,2020-05-15
창성모터스,01,경기도 고양시 일산동구 동국로 100,경기도 고양시 일산동구 식사동 783-7번지,37.68093345,126.802788,2019-02-15,1446.36,01,,,,,,,경기도 고양시 일산동구청,031-8075-6342,2020-05-15
성일자동차검사소,01,경기도 고양시 일산동구 성현로 40,경기도 고양시 일산동구 성석동 981-7번지,37.7087428051,126.7911968606,2020-04-24,1084.91,01,,,,,,031-7656-1463,경기도 고양시 일산동구청,031-8075-6342,2020-05-15
가은현대서비스,02,경기도 고양시 일산동구 견달산로225번길 21-12,경기도 고양시 일산동구 식사동 287-1번지,37.68625001,126.8183577,1997-08-21,786,01,,,,,,,경기도 고양시 일산동구청,031-8075-6342,2020-05-15
비앤비모터스,02,경기도 고양시 일산동구 진밭로 47,경기도 고양시 일산동구 성석동 344번지,37.70039139,126.8027114,2013-04-30,496,01,,,,,,,경기도 고양시 일산동구청,031-8075-6342,2020-05-15
태흥모터스,02,경기도 고양시 일산동구 장진천길 14-48,경기도 고양시 일산동구 설문동 167-13번지,37.7089295,126.813076,2013-07-25,743,01,,,,,,031-977-5556,경기도 고양시 일산동구청,031-8075-6342,2020-05-15
JL MOTORS,02,경기도 고양시 일산동구 견달산로225번길 51,경기도 고양시 일산동구 식사동 288-63번지,37.68695663,126.8169406,2013-11-04,1078.2,01,,,,,,,경기도 고양시 일산동구청,031-8075-6342,2020-05-15
㈜동부현대자동차서비스,02,경기도 고양시 일산동구 동국로 215,경기도 고양시 일산동구 성석동 172-8번지,37.68787138,126.8111324,2014-02-13,2016,01,,,,,,031-968-9336,경기도 고양시 일산동구청,031-8075-6342,2020-05-15
대승자동차,02,경기도 고양시 일산동구 한류월드로 56,경기도 고양시 일산동구 장항동 673-64번지,37.64695501,126.7558968,2014-03-31,573,03,2019-09-10,,,,,031-906-2786,경기도 고양시 일산동구청,031-8075-6342,2020-05-15
오토플러스,02,경기도 고양시 일산동구 고양대로 881,경기도 고양시 일산동구 풍동 660-2번지,37.67889574,126.7932165,2015-11-24,971,01,,,,,,031-976-6789,경기도 고양시 일산동구청,031-8075-6342,2020-05-15
선인자동차㈜,02,경기도 고양시 일산동구 백마로 514,경기도 고양시 일산동구 풍동 116-16번지,37.66293448,126.8051941,2016-03-18,1048.68,01,,,,,,031-901-2888,경기도 고양시 일산동구청,031-8075-6342,2020-05-15
㈜대륭냉동물류,03,경기도 고양시 덕양구 흥도로 46,경기도 고양시 덕양구 화전동 455-29번지,37.61337502,126.8679693,2004-10-21,198,01,,,,,,02-3159-8864,경기도 고양시 덕양구청,031-8075-5342,2020-05-15
행신점 기아오토큐,03,경기도 고양시 덕양구 중앙로 392,경기도 고양시 덕양구 행신동 1094-2번지,37.61604753,126.8514415,2004-10-27,170.56,03,2018-01-25,,,,,031-938-1800,경기도 고양시 덕양구청,031-8075-5342,2020-05-15
에이치-원(H-1),03,경기도 고양시 덕양구 지도로124번길 1,경기도 고양시 덕양구 토당동 891-2번지,37.62827681,126.8234588,2005-01-17,81,01,,,,,,031-938-5150,경기도 고양시 덕양구청,031-8075-5342,2020-05-15
쌍용자동차 행신서비스프라자,03,경기도 고양시 덕양구 무원로 8,경기도 고양시 덕양구 행신동 709번지,37.61359346,126.8327537,2005-01-24,193.72,01,,,,,,031-979-5581,경기도 고양시 덕양구청,031-8075-5342,2020-05-15
세이프 모터스,03,경기도 고양시 덕양구 서오릉로 829,경기도 고양시 덕양구 성사동 281-2번지,37.64584909,126.8547951,2005-06-27,175.5,01,,,,,,031-965-4863,경기도 고양시 덕양구청,031-8075-5342,2020-05-15
부흥자동차공업사,03,경기도 고양시 덕양구 행당로 5,경기도 고양시 덕양구 토당동 877-11번지,37.62014533,126.8252224,2005-07-28,84,01,,,,,,031-974-4151,경기도 고양시 덕양구청,031-8075-5342,2020-05-15
영창오토서비스,03,경기도 고양시 덕양구 마상로 201,경기도 고양시 덕양구 성사동 424-10번지,37.65636988,126.8442216,2005-10-14,106.05,01,,,,,,031-969-0642,경기도 고양시 덕양구청,031-8075-5342,2020-05-15
한국모터스 T''station 행신점,03,경기도 고양시 덕양구 화신로 150,경기도 고양시 덕양구 행신동 925번지,37.62596671,126.8412311,2006-03-03,268.9,01,,,,,,031-978-6300,경기도 고양시 덕양구청,031-8075-5342,2020-05-15
현대그린자동차공업사,03,경기도 고양시 덕양구 통일로726번길 47,경기도 고양시 덕양구 관산동 135-1번지,37.68986963,126.8690492,2006-05-08,95.5,01,,,,,,031-962-7049,경기도 고양시 덕양구청,031-8075-5342,2020-05-15
자동차 마을,03,경기도 고양시 덕양구 삼원안길 55,경기도 고양시 덕양구 원흥동 733번지,37.63689037,126.8742044,2006-05-25,99.51,01,,,,,,031-965-9669,경기도 고양시 덕양구청,031-8075-5342,2020-05-15
스피드메이트 덕양화정점,03,경기도 고양시 덕양구 성신로 16,경기도 고양시 덕양구 화정동 1146-1번지,37.62756273,126.830493,2006-05-25,339.3,01,,,,,,031-970-8002,경기도 고양시 덕양구청,031-8075-5342,2020-05-15
대성오토주식회사,03,경기도 고양시 일산동구 성석로 214,경기도 고양시 일산동구 성석동 729-2번지,37.69594807,126.7981451,2010-02-12,144,01,,,,,,031-923-6643,경기도 고양시 일산동구청,031-8075-6342,2020-05-15
타이어프로중산점,03,경기도 고양시 일산동구 중산로157번길 3,경기도 고양시 일산동구 중산동 1657-1번지,37.68581375,126.7807693,2010-08-03,137,01,,,,,,031-975-0052,경기도 고양시 일산동구청,031-8075-6342,2020-05-15
상아종합모터스 주식회사,01,경기도 고양시 일산동구 동국로 325-4,경기도 고양시 일산동구 문봉동 269-15번지,37.69454345,126.8187705,2017-08-11,1690,01,,,,,,031-977-0738,경기도 고양시 일산동구청,031-8075-6342,2020-05-15
㈜원진자동차,01,경기도 고양시 일산동구 성현로 151,경기도 고양시 일산동구 성석동 536-6번지,37.70901412,126.8027203,2018-05-24,1161.4,01,,,,,,,경기도 고양시 일산동구청,031-8075-6342,2020-05-15
신일산 모터스,03,경기도 고양시 일산서구 탄중로 137,경기도 고양시 일산서구 덕이동 245번지,37.692515,126.760271,2020-01-29,733,01,,,,,,031-915-1383,경기도 고양시 일산서구청,031-8075-7348,2020-05-15
아주카자동차공업사,03,경기도 고양시 일산서구 덕이로292번길 22,경기도 고양시 일산서구 덕이동 1111-3번지,37.70292203,126.7337073,2002-05-07,160,01,,,,,,031-917-1861,경기도 고양시 일산서구청,031-8075-7348,2020-05-15
한양카센타,03,경기도 고양시 일산서구 송산로 217,경기도 고양시 일산서구 구산동 1133-10번지,37.68300888,126.7028567,2003-08-14,109,01,,,,,,031-923-6133,경기도 고양시 일산서구청,031-8075-7348,2020-05-15
해피카공업사,03,경기도 고양시 일산서구 일청로91번길 82,경기도 고양시 일산서구 일산동 2085번지,37.69114219,126.7703119,2001-07-24,75,01,,,,,,031-922-1314,경기도 고양시 일산서구청,031-8075-7348,2020-05-15
행복한카센타,03,경기도 고양시 일산서구 일현로 167,경기도 고양시 일산서구 탄현동 305-20번지,37.6990413,126.762713,2002-05-28,224,01,,,,,,031-912-0219,경기도 고양시 일산서구청,031-8075-7348,2020-05-15
현대그린써비스,03,경기도 고양시 일산서구 일중로 11-1,경기도 고양시 일산서구 일산동 524-8번지,37.68084898,126.773799,1999-09-16,114,01,,,,,,031-975-8572,경기도 고양시 일산서구청,031-8075-7348,2020-05-15
현대오토카마트,03,경기도 고양시 일산서구 일산로635번길 38,경기도 고양시 일산서구 대화동 2110-9번지,37.68019635,126.7573226,2001-12-13,110,01,,,,,,031-917-4686,경기도 고양시 일산서구청,031-8075-7348,2020-05-15
현대자동차 탄현북부점,03,경기도 고양시 일산서구 고봉로 425,경기도 고양시 일산서구 탄현동 2-3번지,37.69730977,126.7785294,1997-06-30,1594,01,,,,,,031-918-8234,경기도 고양시 일산서구청,031-8075-7348,2020-05-15
현대자동차공업사,03,경기도 고양시 일산서구 일산로803번길 82-3,경기도 고양시 일산서구 대화동 2286번지,37.67025519,126.7513702,1998-07-23,228,01,,,,,,031-911-7979,경기도 고양시 일산서구청,031-8075-7348,2020-05-15
현대카모터스,03,경기도 고양시 일산서구 덕산로 85,경기도 고양시 일산서구 구산동 10-8번지,37.69420113,126.7124451,2001-11-24,78,01,,,,,,031-923-5757,경기도 고양시 일산서구청,031-8075-7348,2020-05-15
현대카센타,03,경기도 고양시 일산서구 덕이로 205,경기도 고양시 일산서구 덕이동 1045-9번지,37.69601018,126.7387301,2005-02-19,198,01,,,,,,031-924-8431,경기도 고양시 일산서구청,031-8075-7348,2020-05-15
현대카크리닉,03,경기도 고양시 일산서구 덕산로 283,경기도 고양시 일산서구 덕이동 1038-2번지,37.69596105,126.7344806,2005-09-21,112,01,,,,,,031-915-1533,경기도 고양시 일산서구청,031-8075-7348,2020-05-15
현대카클리닉,03,경기도 고양시 일산서구 일산로635번길 8-2,경기도 고양시 일산서구 대화동 2106-10번지,37.68153166,126.7582297,2002-09-17,76,01,,,,,,031-924-1333,경기도 고양시 일산서구청,031-8075-7348,2020-05-15
현진자동차,03,경기도 고양시 일산서구 송산로 397,경기도 고양시 일산서구 가좌동 202-6번지,37.68558426,126.7230037,2016-02-05,160,01,,,,,,031-918-8204,경기도 고양시 일산서구청,031-8075-7348,2020-05-15
형제카센타,03,경기도 고양시 일산서구 덕산로57번길 7,경기도 고양시 일산서구 구산동 204-6번지,37.69538606,126.7092022,2016-11-01,400,01,,,,,,031-922-1042,경기도 고양시 일산서구청,031-8075-7348,2020-05-15
신화정비공업사,03,경기도 고양시 일산동구 성현로599번길 28,경기도 고양시 일산동구 사리현동 132-1번지,37.69503967,126.8461689,2000-05-10,140,01,,,,,,031-962-8162,경기도 고양시 일산동구청,031-8075-6342,2020-05-15
태성자동차공업사,03,경기도 고양시 일산동구 백석로86번길 6-2,경기도 고양시 일산동구 백석동 1253번지,37.64761524,126.7873199,2000-10-10,103,01,,,,,,031-907-5250,경기도 고양시 일산동구청,031-8075-6342,2020-05-15
마이네키일산덕이점,03,경기도 고양시 일산서구 덕이로 14,경기도 고양시 일산서구 덕이동 219-42번지,37.68945923,126.7577369,1998-11-23,178,01,,,,,,031-922-4818,경기도 고양시 일산서구청,031-8075-7348,2020-05-15
마이네키풍동점,03,경기도 고양시 일산동구 숲속마을1로 62-13,경기도 고양시 일산동구 풍동 1295-14번지,37.66659339,126.8008283,2007-03-09,93,01,,,,,,070-7530-6259,경기도 고양시 일산동구청,031-8075-6342,2020-05-15
오토오아시스일산그린점,03,경기도 고양시 일산동구 고봉로 282,경기도 고양시 일산동구 중산동 1662-2번지,37.68438535,126.7780006,2008-07-28,1393,01,,,,,,031-976-0500,경기도 고양시 일산동구청,031-8075-6342,2020-05-15
스피드밤가시점,03,경기도 고양시 일산동구 산두로 179,경기도 고양시 일산동구 정발산동 1259-3번지,37.67332317,126.7831386,2007-06-29,118,01,,,,,,031-919-5109,경기도 고양시 일산동구청,031-8075-6342,2020-05-15
수색자동차공업사,03,경기도 고양시 덕양구 중앙로 217-1,경기도 고양시 덕양구 화전동 544-12번지,37.60572178,126.8661527,2011-05-13,197.77,01,,,,,,02-372-9919,경기도 고양시 덕양구청,031-8075-5342,2020-05-15
대양모터스,03,경기도 고양시 덕양구 대주로 126,경기도 고양시 덕양구 대장동 238번지,37.63808579,126.8134789,2011-07-18,129.6,01,,,,,,031-972-0909,경기도 고양시 덕양구청,031-8075-5342,2020-05-15
코레일모터스,01,경기도 고양시 일산동구 성현로29번길 1,경기도 고양시 일산동구 성석동 1246-42번지,37.70972813,126.7899165,2013-12-06,1367,01,,,,,,031-976-7400,경기도 고양시 일산동구청,031-8075-6342,2020-05-15
대왕보링자동차공업사,01,경기도 고양시 일산동구 장진천길 14-24,경기도 고양시 일산동구 설문동 167-9번지,37.70872515,126.8124669,2015-03-13,1138,01,,,,,,031-977-9825,경기도 고양시 일산동구청,031-8075-6342,2020-05-15
가온모터스,01,경기도 고양시 일산동구 성석로 46,경기도 고양시 일산동구 중산동 14-4번지,37.68389363,126.7920699,2016-03-28,1240,01,,,,,,031-976-0673,경기도 고양시 일산동구청,031-8075-6342,2020-05-15
오성자동차,01,경기도 고양시 일산동구 은마길 31-30,경기도 고양시 일산동구 성석동 521-84번지,37.71142249,126.805653,2016-07-05,1146,01,,,,,,,경기도 고양시 일산동구청,031-8075-6342,2020-05-15
현대자동차삼송점,03,경기도 고양시 덕양구 삼송로 156,경기도 고양시 덕양구 삼송동 135-54번지,37.65260963,126.8911919,2000-04-22,83.63,01,,,,,,02-381-8066,경기도 고양시 덕양구청,031-8075-5342,2020-05-15
대지카센타,03,경기도 고양시 덕양구 통일로 560,경기도 고양시 덕양구 대자동 353-3번지,37.68329706,126.8874308,2001-11-19,93.6,01,,,,,,031-964-9064,경기도 고양시 덕양구청,031-8075-5342,2020-05-15
쌍용자동차 덕양서비스프라자,03,경기도 고양시 덕양구 마상로126번길 71,경기도 고양시 덕양구 주교동 612-6번지,37.65737296,126.8345051,2001-11-28,144,01,,,,,,031-964-5582,경기도 고양시 덕양구청,031-8075-5342,2020-05-15
스피드,03,경기도 고양시 덕양구 원당로 73,경기도 고양시 덕양구 주교동 584-10번지,37.65919753,126.8352082,2002-03-07,73.1,01,,,,,,031-968-0366,경기도 고양시 덕양구청,031-8075-5342,2020-05-15
한솔자동차공업사,03,경기도 고양시 덕양구 행신로 101,경기도 고양시 덕양구 토당동 407-10번지,37.61791726,126.8270988,2002-06-21,199.6,01,,,,,,031-974-8080,경기도 고양시 덕양구청,031-8075-5342,2020-05-15
e-모터스,03,경기도 고양시 일산동구 고봉로 646,경기도 고양시 일산동구 성석동 1221-10번지,37.71444213,126.7889774,2007-10-11,113,01,,,,,,031-975-5118,경기도 고양시 일산동구청,031-8075-6342,2020-05-15
이유엠모터스,03,경기도 고양시 일산동구 백석로86번길 6-3,경기도 고양시 일산동구 백석동 1254번지,37.64748186,126.787492,1997-06-23,93,01,,,,,,031-902-8254,경기도 고양시 일산동구청,031-8075-6342,2020-05-15
건영1급오토써비스,03,경기도 고양시 일산동구 산두로 80,경기도 고양시 일산동구 마두동 826-7번지,37.6653168,126.787871,1997-09-10,84,01,,,,,,031-903-7453,경기도 고양시 일산동구청,031-8075-6342,2020-05-15
만도플라자 중산점,03,경기도 고양시 일산동구 탄중로425번길 4,경기도 고양시 일산동구 중산동 1579-3번지,37.6871381,126.779013,1997-10-04,87,01,,,,,,,경기도 고양시 일산동구청,031-8075-6342,2020-05-15
오토훼밀리카,03,경기도 고양시 일산동구 일산로463번길 59,경기도 고양시 일산동구 정발산동 1162-1번지,37.67184276,126.7741625,1997-12-04,120,01,,,,,,031-919-0039,경기도 고양시 일산동구청,031-8075-6342,2020-05-15
G1모터스,03,경기도 고양시 일산동구 백석로85번길 31-3,경기도 고양시 일산동구 백석동 1216번지,37.6487703,126.7857373,1998-03-13,303.7,01,,,,,,031-901-8055,경기도 고양시 일산동구청,031-8075-6342,2020-05-15
코뿔소카모터스,03,경기도 고양시 일산동구 멱절길 368-120,경기도 고양시 일산동구 장항동 671-2번지,37.65007021,126.7608196,1998-09-19,83,01,,,,,,031-948-0824,경기도 고양시 일산동구청,031-8075-6342,2020-05-15
참신카센타,03,경기도 고양시 일산동구 호수로430번길 75,경기도 고양시 일산동구 백석동 1422-4번지,37.64571578,126.7822289,1998-10-29,228,01,,,,,,031-904-0329,경기도 고양시 일산동구청,031-8075-6342,2020-05-15
88자동차종합상사,03,경기도 고양시 일산동구 장진천길 16,경기도 고양시 일산동구 설문동 167번지,37.70909016,126.8112552,1998-11-05,120,01,,,,,,031-905-5109,경기도 고양시 일산동구청,031-8075-6342,2020-05-15
스피드메이트 유공판매점,03,경기도 고양시 일산동구 백마로 56,경기도 고양시 일산동구 장항동 541번지,37.64417308,126.7621073,1998-11-28,121,01,,,,,,,경기도 고양시 일산동구청,031-8075-6342,2020-05-15
붕붕카센타,03,경기도 고양시 일산동구 호수로446번길 61,경기도 고양시 일산동구 백석동 1414-12번지,37.64629991,126.7804177,1998-12-29,107,01,,,,,,031-902-6348,경기도 고양시 일산동구청,031-8075-6342,2020-05-15
반도카서비스,03,경기도 고양시 일산동구 견달산로 250,경기도 고양시 일산동구 식사동 1149-2번지,37.68815907,126.8200508,1999-02-06,152,01,,,,,,031-966-1900,경기도 고양시 일산동구청,031-8075-6342,2020-05-15
현대자동차 마두점,03,경기도 고양시 일산동구 산두로 76,경기도 고양시 일산동구 마두동 826-5번지,37.66503928,126.7880455,1999-10-21,96,03,2019-06-10,,,,,031-905-8203,경기도 고양시 일산동구청,031-8075-6342,2020-05-15
한성모터스,02,경기도 고양시 일산서구 덕이로 209-13,경기도 고양시 일산서구 덕이동 1045-27번지,37.69595477,126.738118,2011-04-29,796,01,,,,,,031-916-4464,경기도 고양시 일산서구청,031-8075-7348,2020-05-15
(주)효성모터스,03,경기도 고양시 일산서구 고양대로 315,경기도 고양시 일산서구 대화동 2311번지,37.67211452,126.7395484,2014-08-29,84,01,,,,,,031-910-4196,경기도 고양시 일산서구청,031-8075-7348,2020-05-15
GT,03,경기도 고양시 일산서구 덕산로195번길 85,경기도 고양시 일산서구 가좌동 545-9번지,37.69809999,126.7227485,2004-09-01,351,01,,,,,,,경기도 고양시 일산서구청,031-8075-7348,2020-05-15
MBA모터스,03,경기도 고양시 일산서구 고봉로 411,경기도 고양시 일산서구 탄현동 4-24번지,37.69605458,126.7779798,2015-01-30,996,01,,,,,,031-923-0985,경기도 고양시 일산서구청,031-8075-7348,2020-05-15
㈜삼해홀딩스,02,경기도 고양시 일산동구 장대길 128-80,경기도 고양시 일산동구 장항동 556-3번지,37.64208144,126.7654279,2016-05-30,2257,01,,,,,,031-975-2949,경기도 고양시 일산동구청,031-8075-6342,2020-05-15
CS MOTORS,02,경기도 고양시 일산동구 은마길63번길 75,경기도 고양시 일산동구 설문동 493-10번지,37.71416493,126.803318,2016-08-18,447.97,01,,,,,,,경기도 고양시 일산동구청,031-8075-6342,2020-05-15
오성모터스,02,경기도 고양시 일산동구 은마길 31-31,경기도 고양시 일산동구 성석동 521-83번지,37.71168931,126.8053085,2017-08-03,1146,01,,,,,,031-911-4972,경기도 고양시 일산동구청,031-8075-6342,2020-05-15
성지모터스,02,경기도 고양시 일산동구 성현로135번길 109,경기도 고양시 일산동구 성석동 1024번지,37.71241774,126.7971876,2017-12-19,435,01,,,,,,031-976-4982,경기도 고양시 일산동구청,031-8075-6342,2020-05-15
광진자동차공업사,02,경기도 고양시 일산동구 은마길 31-40,경기도 고양시 일산동구 성석동 520-1번지,37.71101642,126.8055915,2018-01-30,426.7,01,,,,,,031-977-7488,경기도 고양시 일산동구청,031-8075-6342,2020-05-15
㈜모터원 고양사고수리 전문센터,02,경기도 고양시 일산동구 성석로 209,경기도 고양시 일산동구 성석동 733-4번지,37.69559419,126.7970169,2018-03-09,486.45,01,,,,,,070-7774-7236,경기도 고양시 일산동구청,031-8075-6342,2020-05-15
케이씨씨오토모빌㈜일산점,02,경기도 고양시 일산동구 백마로 536-30,경기도 고양시 일산동구 풍동 115-6번지,37.66297701,126.806086,2018-09-28,872.98,01,,,,,,,경기도 고양시 일산동구청,031-8075-6342,2020-05-15
클라쎄오토주식회사(일산지점),02,경기도 고양시 일산동구 무궁화로 337,경기도 고양시 일산동구 풍동 711번지,37.67716376,126.7964273,2019-02-18,1636.93,01,,,,,,,경기도 고양시 일산동구청,031-8075-6342,2020-05-15
대승 자동차,02,경기도 고양시 일산동구 장항로225번길 103,경기도 고양시 일산동구 장항동 572-9번지,37.64141965,126.7688154,2019-08-20,661,01,,,,,,,경기도 고양시 일산동구청,031-8075-6342,2020-05-15
주식회사 오토데이,02,경기도 고양시 일산동구 일산로 74-23,경기도 고양시 일산동구 백석동 1240번지,37.64390503,126.7912969,2008-11-28,452.55,03,2017-12-01,,,,,031-905-8804,경기도 고양시 일산동구청,031-8075-6342,2020-05-15
경기자동차공업사,01,경기도 고양시 일산동구 견달산로 185,경기도 고양시 일산동구 식사동 1179-1번지,37.68287516,126.8205538,2003-07-09,1025.13,01,,,,,,031-966-4018,경기도 고양시 일산동구청,031-8075-6342,2020-05-15
클럽타이어JK 일산점,03,경기도 고양시 일산동구 고봉로 705,경기도 고양시 일산동구 설문동 744-8번지,37.71990119,126.7888773,2016-04-06,110.53,03,2019-12-30,,,,,031-976-3727,경기도 고양시 일산동구청,031-8075-6342,2020-05-15
백마상사,03,경기도 고양시 일산동구 성석로92번길 19,경기도 고양시 일산동구 성석동 879-6번지,37.6876814,126.7951169,2016-07-20,198,01,,,,,,031-977-8006,경기도 고양시 일산동구청,031-8075-6342,2020-05-15
악튜닝코리아,03,경기도 고양시 일산동구 사리현로 211,경기도 고양시 일산동구 사리현동 484-1번지,37.6948103,126.8411493,2016-10-28,115,01,,,,,,,경기도 고양시 일산동구청,031-8075-6342,2020-05-15
㈜리안모터스 일산전시장,03,경기도 고양시 일산동구 백마로 495,경기도 고양시 일산동구 풍동 148-4번지,37.66284985,126.8030646,2017-01-31,66.47,01,,,,,,031-902-1119,경기도 고양시 일산동구청,031-8075-6342,2020-05-15
한솔자동차공업사,03,경기도 고양시 일산동구 지영로 54,경기도 고양시 일산동구 지영동 374-9번지,37.70614803,126.8241434,2017-05-29,138.26,01,,,,,,031-977-5356,경기도 고양시 일산동구청,031-8075-6342,2020-05-15
H모터스,03,경기도 고양시 일산동구 은행마을로 38,경기도 고양시 일산동구 풍동 849-4번지,37.66632685,126.8047544,2010-10-29,86,01,,,,,,031-902-7321,경기도 고양시 일산동구청,031-8075-6342,2020-05-15
DISCOVERYMOTORS,03,경기도 고양시 일산동구 감내길 12-1,경기도 고양시 일산동구 성석동 1364번지,37.71008744,126.7843189,2011-03-16,218,03,2020-03-09,,,,,031-977-4116,경기도 고양시 일산동구청,031-8075-6342,2020-05-15
주식회사 제이앤에이치모터스,03,경기도 고양시 일산동구 고일로 151-1,경기도 고양시 일산동구 풍동 885-5번지,37.66072645,126.8006959,2008-10-14,974,01,,,,,,031-903-0122,경기도 고양시 일산동구청,031-8075-6342,2020-05-15
㈜그랜드타이어 일산지점,03,경기도 고양시 일산서구 덕이로 50-20,경기도 고양시 일산서구 덕이동 452번지,37.69072975,126.7551885,2016-07-21,321,01,,,,,,031-911-6511,경기도 고양시 일산서구청,031-8075-7348,2020-05-15
㈜봉구통상 일산점,03,경기도 고양시 일산서구 송산로 490,경기도 고양시 일산서구 덕이동 1363-21번지,37.68817263,126.732708,2013-09-17,621,01,,,,,,031-925-6047,경기도 고양시 일산서구청,031-8075-7348,2020-05-15
㈜엠투엠몰,03,경기도 고양시 일산서구 경의로789번길 34,경기도 고양시 일산서구 덕이동 236-14번지,37.68880282,126.7574896,2017-11-07,394,01,,,,,,031-921-5565,경기도 고양시 일산서구청,031-8075-7348,2020-05-15
㈜평우서비스고양점,03,경기도 고양시 일산서구 탄중로 90-10,경기도 고양시 일산서구 덕이동 446-23번지,37.69139311,126.7553042,2013-11-28,860,01,,,,,,031-925-9887,경기도 고양시 일산서구청,031-8075-7348,2020-05-15
카나이스,03,경기도 고양시 일산서구 덕산로 175,경기도 고양시 일산서구 가좌동 494-7번지,37.69510422,126.7223514,2006-11-29,200,01,,,,,,031-922-8274,경기도 고양시 일산서구청,031-8075-7348,2020-05-15
일산오토,03,경기도 고양시 일산서구 송산로 559-6,경기도 고양시 일산서구 덕이동 975-1번지,37.69195296,126.7390754,2005-11-07,198,01,,,,,,031-911-2741,경기도 고양시 일산서구청,031-8075-7348,2020-05-15
아트텍연구소,03,경기도 고양시 일산동구 고봉로678번길 52,경기도 고양시 일산동구 성석동 1075번지,37.71589809,126.7912562,2013-05-13,198,01,,,,,,031-976-3573,경기도 고양시 일산동구청,031-8075-6342,2020-05-15
대성카센타,03,경기도 고양시 일산동구 견달산로369번길 18,경기도 고양시 일산동구 문봉동 107-1번지,37.69945222,126.8194978,2012-06-01,662,01,,,,,,,경기도 고양시 일산동구청,031-8075-6342,2020-05-15
카젠백석점,03,경기도 고양시 일산동구 강송로74번길 7-8,경기도 고양시 일산동구 백석동 1169-4번지,37.64731213,126.790271,2014-01-08,319,01,,,,,,031-932-2580,경기도 고양시 일산동구청,031-8075-6342,2020-05-15
inch by inch,03,경기도 고양시 일산동구 장항로225번길 100,경기도 고양시 일산동구 장항동 566-35번지,37.64184832,126.7689896,2014-02-25,1164,01,,,,,,02-2122-2426,경기도 고양시 일산동구청,031-8075-6342,2020-05-15
백석동부점 현대자동차,03,경기도 고양시 일산동구 백석로85번길 5-4,경기도 고양시 일산동구 백석동 1213-7번지,37.64810408,126.786666,2014-05-08,230,01,,,,,,031-904-2839,경기도 고양시 일산동구청,031-8075-6342,2020-05-15
바이더모터스,03,경기도 고양시 일산동구 고양대로1119번길 42-1,경기도 고양시 일산동구 식사동 513-53번지,37.66543194,126.8160918,2014-06-09,405,01,,,,,,031-966-3314,경기도 고양시 일산동구청,031-8075-6342,2020-05-15
MORTOR-IN (모터인),02,경기도 고양시 일산동구 은마길79번길 55,경기도 고양시 일산동구 설문동 500-24번지,37.71699239,126.8049285,2018-01-29,404.29,01,,,,,,,경기도 고양시 일산동구청,031-8075-6342,2020-05-15
스마트 자동차공업사,02,경기도 고양시 일산동구 은마길63번길 75,경기도 고양시 일산동구 설문동 493-10번지,37.71416493,126.803318,2018-08-31,452.56,01,,,,,,,경기도 고양시 일산동구청,031-8075-6342,2020-05-15
코닉모터스,02,경기도 고양시 일산동구 견달산로 341,경기도 고양시 일산동구 문봉동 101-20번지,37.69648276,126.8198502,2019-04-11,1505,01,,,,,,,경기도 고양시 일산동구청,031-8075-6342,2020-05-15
K모터스,03,경기도 고양시 일산동구 숲속마을2로 59,경기도 고양시 일산동구 풍동 226-25번지,37.6743791,126.7991502,2017-06-07,136.8,01,,,,,,031-902-6622,경기도 고양시 일산동구청,031-8075-6342,2020-05-15
일산로케트 엔 모빌하임,03,경기도 고양시 일산동구 백마로 456,경기도 고양시 일산동구 풍동 843-2번지,37.66081935,126.7991984,2017-06-07,193.44,01,,,,,,031-902-4820,경기도 고양시 일산동구청,031-8075-6342,2020-05-15
㈜타이어나라 일산지점,03,경기도 고양시 일산동구 백마로 466,경기도 고양시 일산동구 풍동 884-3번지,37.66107572,126.8004863,2017-07-13,351,01,,,,,,031-927-9282,경기도 고양시 일산동구청,031-8075-6342,2020-05-15
루카스,03,경기도 고양시 일산동구 고양대로1119번길 11,경기도 고양시 일산동구 식사동 491-6번지,37.66635497,126.8146944,2017-07-19,161.29,01,,,,,,,경기도 고양시 일산동구청,031-8075-6342,2020-05-15
REVO,03,경기도 고양시 일산동구 장항로 309,경기도 고양시 일산동구 장항동 547-8번지,37.64341249,126.7650973,2017-08-22,164.7,01,,,,,,,경기도 고양시 일산동구청,031-8075-6342,2020-05-15
HC모터스,03,경기도 고양시 일산동구 산두로 76,경기도 고양시 일산동구 마두동 826-5번지,37.66503928,126.7880455,2017-08-24,167.85,01,,,,,,031-906-8235,경기도 고양시 일산동구청,031-8075-6342,2020-05-15
바름정비오토오아시스 애니골점,03,경기도 고양시 일산동구 무궁화로 307,경기도 고양시 일산동구 풍동 622-1번지,37.67574863,126.7938456,2017-08-31,76.41,01,,,,,,031-903-0979,경기도 고양시 일산동구청,031-8075-6342,2020-05-15
엠 게러지,03,경기도 고양시 일산동구 성현로 632,경기도 고양시 일산동구 사리현동 23-94번지,37.69335378,126.8506851,2018-03-05,189,01,,,,,,031-966-5454,경기도 고양시 일산동구청,031-8075-6342,2020-05-15
주식회사 코르사모터스,03,경기도 고양시 일산동구 백마로 468,경기도 고양시 일산동구 풍동 883번지,37.66133858,126.8006408,2018-06-19,289,01,,,,,,,경기도 고양시 일산동구청,031-8075-6342,2020-05-15
투베이스(2bass),03,경기도 고양시 일산동구 문원길170번길 103-23,경기도 고양시 일산동구 설문동 31-20번지,37.72307909,126.8206433,2018-10-04,160,01,,,,,,070-7743-2855,경기도 고양시 일산동구청,031-8075-6342,2020-05-15
The Euro Motors,03,경기도 고양시 일산동구 고양대로 1002,경기도 고양시 일산동구 식사동 1059번지,37.67405686,126.8046872,2018-10-26,130.8,01,,,,,,,경기도 고양시 일산동구청,031-8075-6342,2020-05-15
사인 오토모티브,03,경기도 고양시 일산동구 성석로 181-1,경기도 고양시 일산동구 성석동 766-4번지,37.69316106,126.7969768,2018-11-16,723.49,01,,,,,,,경기도 고양시 일산동구청,031-8075-6342,2020-05-15
튜니드,03,경기도 고양시 일산동구 감내길 48-45,경기도 고양시 일산동구 성석동 1200-3번지,37.71308808,126.7852226,2018-12-19,198,01,,,,,,,경기도 고양시 일산동구청,031-8075-6342,2020-05-15
RS커스텀,03,경기도 고양시 일산동구 장항로 76-12,경기도 고양시 일산동구 백석동 1114-10번지,37.63236861,126.7871329,2019-04-11,966,01,,,,,,,경기도 고양시 일산동구청,031-8075-6342,2020-05-15
져먼파츠,03,경기도 고양시 일산동구 호수로430번길 8-2,경기도 고양시 일산동구 백석동 1431번지,37.64320987,126.7796238,2019-06-03,311.85,01,,,,,,,경기도 고양시 일산동구청,031-8075-6342,2020-05-15
㈜에이치엔테크,03,경기도 고양시 일산동구 성현로 371,경기도 고양시 일산동구 문봉동 168-52번지,37.7022998,126.8248664,2017-09-14,197.16,01,,2019-07-11,,,,,경기도 고양시 일산동구청,031-8075-6342,2020-05-15
윈로드모터스,03,경기도 고양시 일산동구 장항로 33,경기도 고양시 일산동구 백석동 1123-8번지,37.6299603276,126.7906879071,2019-12-24,148.42,01,,,,,,,경기도 고양시 일산동구청,031-8075-6342,2020-05-15
(주)오토프로,01,경기도 고양시 일산서구 덕이로 171-1,경기도 고양시 일산서구 덕이동 854-3번지 3,37.69336957,126.7408347,2018-06-01,1217,01,,,,,,031-924-3855,경기도 고양시 일산서구청,031-8075-7348,2020-05-15
경기자동차공업사,03,경기도 고양시 일산동구 장항로 387,경기도 고양시 일산동구 장항동 673-18번지,37.64888331,126.7601934,2011-09-09,94,01,,,,,,,경기도 고양시 일산동구청,031-8075-6342,2020-05-15
타이어테크(고양점),03,경기도 고양시 일산서구 대화로 362,경기도 고양시 일산서구 대화동 2324번지,37.68359703,126.7463784,2016-02-11,95,01,,,,,,031-911-0031,경기도 고양시 일산서구청,031-8075-7348,2020-05-15
탄현카써비스,03,경기도 고양시 일산서구 경의로 925,경기도 고양시 일산서구 덕이동 309-53번지,37.70021612,126.7591306,1997-12-30,330,01,,,,,,031-912-1412,경기도 고양시 일산서구청,031-8075-7348,2020-05-15
태극모터스,03,경기도 고양시 일산서구 대화로 53-9,경기도 고양시 일산서구 법곳동 751-3번지,37.66676745,126.7272945,2010-02-02,200,01,,,,,,031-912-0004,경기도 고양시 일산서구청,031-8075-7348,2020-05-15
현대카크리닉,03,경기도 고양시 일산동구 산두로 197,경기도 고양시 일산동구 정발산동 1254-1번지,37.67460018,126.7820296,2000-12-22,83,01,,,,,,031-911-7033,경기도 고양시 일산동구청,031-8075-6342,2020-05-15
해피카자동차정비센타,03,경기도 고양시 일산동구 백마로 445,경기도 고양시 일산동구 풍동 426-5번지,37.66130896,126.7977285,2001-01-31,111,01,,,,,,031-904-4511,경기도 고양시 일산동구청,031-8075-6342,2020-05-15
하이웨이카센타,03,경기도 고양시 일산동구 장항로 183,경기도 고양시 일산동구 장항동 611-11번지,37.63847424,126.7781208,2001-07-05,91,01,,,,,,031-906-5109,경기도 고양시 일산동구청,031-8075-6342,2020-05-15
하이텍 모터스,03,경기도 고양시 일산동구 장항로 209,경기도 고양시 일산동구 장항동 601-22번지,37.64001769,126.7757728,2001-11-06,96,01,,,,,,031-901-2266,경기도 고양시 일산동구청,031-8075-6342,2020-05-15
홍박사자동차공업사,03,경기도 고양시 일산동구 성석로 118,경기도 고양시 일산동구 성석동 871-2번지,37.68742304,126.7971147,2002-08-09,98,01,,,,,,031-977-1487,경기도 고양시 일산동구청,031-8075-6342,2020-05-15
정연보링,04,경기도 고양시 일산동구 공릉천로 393-2,경기도 고양시 일산동구 지영동 216-18번지,37.7219335481,126.8296157967,2016-02-04,392,01,,,,,,031-945-2280,경기도 고양시 일산동구청,031-8075-6342,2020-05-15
위시티로점현대자동차,03,경기도 고양시 일산동구 위시티로 43,경기도 고양시 일산동구 식사동 662-2번지,37.676339,126.8094005,1997-04-29,325,01,,,,,,031-907-0136,경기도 고양시 일산동구청,031-8075-6342,2020-05-15
자유로카센타,03,경기도 고양시 일산동구 장항로 384-11,경기도 고양시 일산동구 장항동 673-19번지,37.64936564,126.7606263,2007-12-27,165,01,,,,,,031-901-0615,경기도 고양시 일산동구청,031-8075-6342,2020-05-15
DS모터스,03,경기도 고양시 일산동구 숲속마을로 14-11,경기도 고양시 일산동구 풍동 1276-3번지,37.66755717,126.8016856,2008-05-09,156,01,,,,,,031-903-8684,경기도 고양시 일산동구청,031-8075-6342,2020-05-15
고려자동차공업사,03,경기도 고양시 일산동구 강촌로12번길 8-1,경기도 고양시 일산동구 백석동 1457번지,37.64520602,126.7782373,2009-09-15,88,03,2019-08-23,,,,,,경기도 고양시 일산동구청,031-8075-6342,2020-05-15
오토보겐코리아(Auto wogen),03,경기도 고양시 일산서구 대화로 36,경기도 고양시 일산서구 법곳동 143-2번지,37.66530064,126.7272862,2017-01-06,198,01,,,,,,1522-4520,경기도 고양시 일산서구청,031-8075-7348,2020-05-15
오토오아시스 일산희망점,03,경기도 고양시 일산서구 경의로 910,경기도 고양시 일산서구 덕이동 304-4번지,37.69846927,126.7596397,2008-11-25,82,01,,,,,,031-925-5193,경기도 고양시 일산서구청,031-8075-7348,2020-05-15
오토프랜드,03,경기도 고양시 일산서구 대화로 33,경기도 고양시 일산서구 법곳동 89-4번지,37.66534235,126.7266242,2002-04-23,132,01,,,,,,031-914-0234,경기도 고양시 일산서구청,031-8075-7348,2020-05-15
우진카랜드,03,경기도 고양시 일산서구 대산로223번길 16-1,경기도 고양시 일산서구 대화동 2156-6번지,37.67804363,126.7532759,1998-09-19,100,01,,,,,,031-918-5151,경기도 고양시 일산서구청,031-8075-7348,2020-05-15
유진카,03,경기도 고양시 일산서구 덕이로 265,경기도 고양시 일산서구 덕이동 1072-2번지,37.69999773,126.7346249,1998-10-12,146,01,,,,,,031-921-5727,경기도 고양시 일산서구청,031-8075-7348,2020-05-15
일봉자동차공업사,03,경기도 고양시 일산서구 일산로 517,경기도 고양시 일산서구 일산동 1088-1번지,37.67641959,126.7699764,2000-09-18,71,01,,,,,,031-916-9993,경기도 고양시 일산서구청,031-8075-7348,2020-05-15
애니카랜드 대화점,03,경기도 고양시 일산서구 성저로38번길 29,경기도 고양시 일산서구 대화동 2045-3번지,37.68281605,126.7536818,2007-04-18,389,01,,,,,,031-925-7055,경기도 고양시 일산서구청,031-8075-7348,2020-05-15
(주)타이어닥터,03,경기도 고양시 일산동구 고양대로 946,경기도 고양시 일산동구 식사동 833-2번지,37.67647188,126.7993886,2009-06-09,220,01,,,,,,031-975-6647,경기도 고양시 일산동구청,031-8075-6342,2020-05-15
K모터스,03,경기도 고양시 일산동구 고봉로 470,경기도 고양시 일산동구 성석동 1305-5번지,37.70041931,126.7816644,2009-08-19,99,01,,,,,,031-976-5182,경기도 고양시 일산동구청,031-8075-6342,2020-05-15
CARPOS백석점,03,경기도 고양시 일산동구 강송로73번길 10,경기도 고양시 일산동구 백석동 1250-4번지,37.64644022,126.7895939,2004-06-01,80,01,,,,,,031-908-0951,경기도 고양시 일산동구청,031-8075-6342,2020-05-15
OK카써비스,03,경기도 고양시 일산동구 산두로 17-2,경기도 고양시 일산동구 마두동 871-3번지,37.66092054,126.7888151,2005-02-18,194,01,,,,,,031-902-1331,경기도 고양시 일산동구청,031-8075-6342,2020-05-15
오일뱅크정비센타,03,경기도 고양시 일산동구 성현로 38,경기도 고양시 일산동구 성석동 981-2번지,37.70883963,126.7909057,2005-05-30,99,01,,,,,,031-977-7736,경기도 고양시 일산동구청,031-8075-6342,2020-05-15
Top Motors(탑모터스),03,경기도 고양시 일산동구 강송로74번길 67,경기도 고양시 일산동구 백석동 1154번지,37.64925828,126.791146,2005-06-07,102,01,,,,,,031-922-0031,경기도 고양시 일산동구청,031-8075-6342,2020-05-15
대동3급공업사,03,경기도 고양시 일산동구 사리현로 6,경기도 고양시 일산동구 식사동 248-1번지,37.68844242,126.8204544,2005-06-16,198,01,,,,,,031-968-4404,경기도 고양시 일산동구청,031-8075-6342,2020-05-15
한새미카센타,03,경기도 고양시 일산동구 문봉길 10,경기도 고양시 일산동구 문봉동 168번지,37.70306259,126.8219354,2005-09-08,198,01,,,,,,031-975-9509,경기도 고양시 일산동구청,031-8075-6342,2020-05-15
한일자동차공업사,03,경기도 고양시 일산동구 강송로113번길 53-26,경기도 고양시 일산동구 백석동 1196번지,37.64699502,126.7857095,2002-12-16,106,01,,,,,,031-902-1002,경기도 고양시 일산동구청,031-8075-6342,2020-05-15
쌍용카센타,03,경기도 고양시 일산동구 경의로 367,경기도 고양시 일산동구 마두동 862-3번지,37.66232058,126.7909118,2002-10-04,252,01,,,,,,031-904-2219,경기도 고양시 일산동구청,031-8075-6342,2020-05-15
티스테이션 일산덕이점,03,경기도 고양시 일산서구 경의로 923,경기도 고양시 일산서구 덕이동 309-16번지,37.70003601,126.759172,2002-07-09,191,01,,,,,,031-905-9944,경기도 고양시 일산서구청,031-8075-7348,2020-05-15
평화자동차정비센타,03,경기도 고양시 일산서구 덕이로 261,경기도 고양시 일산서구 덕이동 1072-3번지,37.6997033,126.7351068,2001-08-07,133,01,,,,,,031-917-7280,경기도 고양시 일산서구청,031-8075-7348,2020-05-15
하이카고양대화점,03,경기도 고양시 일산서구 호수로838번길 34-18,경기도 고양시 일산서구 대화동 2284-6번지,37.67071661,126.7514276,2014-12-18,82,01,,,,,,031-921-0952,경기도 고양시 일산서구청,031-8075-7348,2020-05-15
한국오토,03,경기도 고양시 일산서구 송포로 349,경기도 고양시 일산서구 가좌동 91-29번지,37.69443309,126.7250842,2002-10-30,264,01,,,,,,031-916-9228,경기도 고양시 일산서구청,031-8075-7348,2020-05-15
현대그린모터스,03,경기도 고양시 일산서구 송포로 43,경기도 고양시 일산서구 대화동 1470-7번지,37.67032806,126.7319876,2009-12-02,250,01,,,,,,031-922-5115,경기도 고양시 일산서구청,031-8075-7348,2020-05-15
현대자동차 일산점,03,경기도 고양시 일산서구 고양대로 605,경기도 고양시 일산서구 일산동 972-16번지,37.68711202,126.7643201,2003-12-09,163,01,,,,,,031-975-1265,경기도 고양시 일산서구청,031-8075-7348,2020-05-15
OK1급자동차정비사업소,01,경기도 고양시 일산서구 송포로447번길 46,경기도 고양시 일산서구 가좌동 6-1번지,37.70304413,126.7256602,2006-02-10,1329,01,,,,,,031-921-3900,경기도 고양시 일산서구청,031-8075-7348,2020-05-15
SH모터스,01,경기도 고양시 일산서구 고양대로 110-5,경기도 고양시 일산서구 법곳동 245-1번지,37.65991317,126.7243503,2003-01-29,1140,01,,,,,,031-912-6293,경기도 고양시 일산서구청,031-8075-7348,2020-05-15
고양모터스,01,경기도 고양시 일산서구 덕산로 196-51,경기도 고양시 일산서구 가좌동 130-2번지,37.69300275,126.7237153,2011-10-26,1583,01,,,,,,031-915-1888,경기도 고양시 일산서구청,031-8075-7348,2020-05-15
덕이자동차정비공업㈜,01,경기도 고양시 일산서구 송산로 499-16,경기도 고양시 일산서구 덕이동 1347-3번지,37.68935835,126.7327264,2016-06-24,1589,01,,,,,,031-913-7707,경기도 고양시 일산서구청,031-8075-7348,2020-05-15
동해운수주식회사,01,경기도 고양시 일산서구 경의로 772,경기도 고양시 일산서구 대화동 1994번지,37.68686299,126.7605615,2010-08-09,1160,01,,,,,,031-913-6080,경기도 고양시 일산서구청,031-8075-7348,2020-05-15
두산오토서비스 주식회사,01,경기도 고양시 일산서구 송산로 506,경기도 고양시 일산서구 덕이동 937-15번지,37.68915662,126.7343597,1999-08-26,1600,01,,,,,,031-978-3100,경기도 고양시 일산서구청,031-8075-7348,2020-05-15
마하수리,01,경기도 고양시 일산서구 경의로789번길 26,경기도 고양시 일산서구 덕이동 236-12번지,37.6886307988,126.7579617628,2019-12-09,1860,01,,,,,,,경기도 고양시 일산서구청,031-8075-7348,2020-05-15
미광모터스,01,경기도 고양시 일산서구 송산로 524,경기도 고양시 일산서구 덕이동 931-4번지,37.69003159,126.7356173,2005-03-04,1069,01,,,,,,031-918-4606,경기도 고양시 일산서구청,031-8075-7348,2020-05-15
보성자동차정비공업사,01,경기도 고양시 일산서구 덕이로 229,경기도 고양시 일산서구 덕이동 1053-3번지,37.69784103,126.7371408,1993-09-01,2178,01,,,,,,031-914-7373,경기도 고양시 일산서구청,031-8075-7348,2020-05-15
쌍용자동차 일산사업소㈜,01,경기도 고양시 일산서구 덕이로 50-16,경기도 고양시 일산서구 덕이동 451번지,37.69044124,126.7550942,2007-02-21,2545,01,,,,,,031-977-9333,경기도 고양시 일산서구청,031-8075-7348,2020-05-15
에이스정비사업소,01,경기도 고양시 일산서구 경의로 832,경기도 고양시 일산서구 덕이동 245-2번지,37.69184561,126.7597881,1996-03-25,2245,01,,,,,,031-913-4949,경기도 고양시 일산서구청,031-8075-7348,2020-05-15
자일일산서비스 주식회사,01,경기도 고양시 일산서구 경의로 848,경기도 고양시 일산서구 덕이동 270번지,37.69286344,126.7605422,1995-01-06,5020,01,,,,,,031-914-0900,경기도 고양시 일산서구청,031-8075-7348,2020-05-15
㈜르노삼성일산정비사업소,01,경기도 고양시 일산서구 법곳길115번길 82-25,경기도 고양시 일산서구 법곳동 239-1번지,37.66126059,126.7226226,2007-07-05,2314,01,,,,,,031-911-9845,경기도 고양시 일산서구청,031-8075-7348,2020-05-15
㈜샤인모터스,01,경기도 고양시 일산서구 미래로 184-17,경기도 고양시 일산서구 덕이동 556-3번지,37.69461746,126.7479191,2017-12-27,1131,01,,,,,,031-918-8272,경기도 고양시 일산서구청,031-8075-7348,2020-05-15
주식회사 모터원,01,경기도 고양시 일산서구 법곳길 82,경기도 고양시 일산서구 대화동 1417번지,37.66567306,126.7278153,2010-12-07,1274,01,,,,,,070-7774-7236,경기도 고양시 일산서구청,031-8075-7348,2020-05-15
주식회사 에스클래스(S-CLASS),01,경기도 고양시 일산서구 송산로 361-2,경기도 고양시 일산서구 가좌동 994번지,37.68517389,126.7186382,2010-03-09,2013,01,,,,,,031-918-4982,경기도 고양시 일산서구청,031-8075-7348,2020-05-15
주식회사 우정,01,경기도 고양시 일산서구 덕산로121번길 13-2,경기도 고양시 일산서구 가좌동 660-2번지,37.69439751,126.7161497,2019-09-30,1081,01,,,,,,031-921-8575,경기도 고양시 일산서구청,031-8075-7348,2020-05-15
AMC모터스,01,경기도 고양시 일산서구 멱절길 11,경기도 고양시 일산서구 법곳동 208-3번지,37.66071658,126.7257843,2010-08-19,1538,01,,,,,,031-918-4700,경기도 고양시 일산서구청,031-8075-7348,2020-05-15
㈜일산자동차서비스,01,경기도 고양시 일산서구 송산로 499,경기도 고양시 일산서구 덕이동 1352-1번지,37.68929941,126.733756,2000-09-05,1467,01,,,,,,031-915-6003,경기도 고양시 일산서구청,031-8075-7348,2020-05-15
㈜한일카독크,01,경기도 고양시 일산서구 덕이로 48,경기도 고양시 일산서구 덕이동 450번지,37.69028154,126.7545505,1995-07-04,1553,01,,,,,,031-918-8585,경기도 고양시 일산서구청,031-8075-7348,2020-05-15
코닉모터스,01,경기도 고양시 일산서구 덕산로121번길 23-4,경기도 고양시 일산서구 가좌동 664-52번지,37.69490424,126.7170594,2015-12-23,1876,01,,,,,,031-922-0163,경기도 고양시 일산서구청,031-8075-7348,2020-05-15
현대덕이공업사(주),01,경기도 고양시 일산서구 탄중로 125-1,경기도 고양시 일산서구 덕이동 262-4번지,37.69292483,126.7588322,2004-12-03,1442,01,,,,,,031-917-8231,경기도 고양시 일산서구청,031-8075-7348,2020-05-15
현대자동차㈜ 고양서비스센터,01,경기도 고양시 일산서구 킨텍스로 217-6,경기도 고양시 일산서구 대화동 2601번지,37.66620737,126.7476843,2017-01-12,23031,01,,,,,,02-3271-2732,경기도 고양시 일산서구청,031-8075-7348,2020-05-15
B&B모터스,02,경기도 고양시 일산서구 신덕로 49,경기도 고양시 일산서구 덕이동 1096-10번지,37.70102115,126.7378054,2016-06-09,992,01,,,,,,031-923-2929,경기도 고양시 일산서구청,031-8075-7348,2020-05-15
SPEED 공업사,02,경기도 고양시 일산서구 고양대로112번길 54-29,경기도 고양시 일산서구 법곳동 250-4번지,37.65926831,126.7244524,2001-11-05,720,01,,,,,,031-915-9442,경기도 고양시 일산서구청,031-8075-7348,2020-05-15
Y·B MOTOS,02,경기도 고양시 일산서구 송산로 511,경기도 고양시 일산서구 덕이동 1351-7번지,37.68971503,126.7342716,2018-04-10,1007,01,,,,,,031-925-7601,경기도 고양시 일산서구청,031-8075-7348,2020-05-15
모터파크,02,경기도 고양시 일산서구 산남로 211-6,경기도 고양시 일산서구 가좌동 578-10번지,37.70044332,126.7170157,2012-05-31,619,01,,,,,,031-957-9622,경기도 고양시 일산서구청,031-8075-7348,2020-05-15
서현대자동차정비공업사,02,경기도 고양시 일산서구 덕이로 255,경기도 고양시 일산서구 덕이동 1072-10번지,37.69942709,126.7356838,2007-05-29,1152,01,,,,,,031-912-9015,경기도 고양시 일산서구청,031-8075-7348,2020-05-15
아우토슈타트㈜,02,경기도 고양시 일산서구 고양대로 136,경기도 고양시 일산서구 법곳동 209-20번지,37.66181945,126.7258165,2014-12-18,1717,01,,,,,,031-813-0911,경기도 고양시 일산서구청,031-8075-7348,2020-05-15
오복운수,02,경기도 고양시 일산서구 송포로447번길 54,경기도 고양시 일산서구 가좌동 6-4번지,37.70267244,126.7254484,2007-12-27,1774,01,,,,,,031-923-6101,경기도 고양시 일산서구청,031-8075-7348,2020-05-15
오토그린모터스,02,경기도 고양시 일산서구 신덕로 110,경기도 고양시 일산서구 덕이동 662-11번지,37.70611799,126.7398559,2019-07-16,660,01,,,,,,031-923-8201,경기도 고양시 일산서구청,031-8075-7348,2020-05-15
일산모터스,02,경기도 고양시 일산서구 고양대로 110,경기도 고양시 일산서구 법곳동 256-11번지,37.66007162,126.7242998,1996-07-02,621,01,,,,,,031-918-1313,경기도 고양시 일산서구청,031-8075-7348,2020-05-15
㈜HS모터스,02,경기도 고양시 일산서구 고양대로112번길 54-13,경기도 고양시 일산서구 법곳동 256-16번지,37.65867093,126.7248263,2017-08-18,770,01,,,,,,070-8833-0956,경기도 고양시 일산서구청,031-8075-7348,2020-05-15
장항자동차공업사,02,경기도 고양시 일산동구 장대길105번길 138,경기도 고양시 일산동구 장항동 545-26번지,37.64070803,126.759903,1996-04-13,730,01,,,,,,031-906-5576,경기도 고양시 일산동구청,031-8075-6342,2020-05-15
sh motors,02,경기도 고양시 일산동구 공릉천로 348,경기도 고양시 일산동구 지영동 1-38번지,37.72132897,126.8349405,2016-02-29,960,01,,,,,,,경기도 고양시 일산동구청,031-8075-6342,2020-05-15
AJ 모터스,02,경기도 고양시 일산동구 은마길63번길 75,경기도 고양시 일산동구 설문동 493-10번지,37.71416493,126.803318,2016-08-18,483.12,01,,,,,,,경기도 고양시 일산동구청,031-8075-6342,2020-05-15
성석자동차서비스,02,경기도 고양시 일산동구 성현로135번길 109,경기도 고양시 일산동구 성석동 1024번지,37.71241774,126.7971876,2016-10-18,415,01,,,,,,,경기도 고양시 일산동구청,031-8075-6342,2020-05-15
대신카센타,03,경기도 고양시 덕양구 혜음로 103,경기도 고양시 덕양구 고양동 444-1번지,37.70958575,126.9015579,2003-10-17,71.67,01,,,,,,031-969-2440,경기도 고양시 덕양구청,031-8075-5342,2020-05-15
대원카센타,03,경기도 고양시 덕양구 통일로768번길 32,경기도 고양시 덕양구 관산동 181-52번지,37.689138,126.865817,2004-04-01,56,01,,,,,,031-964-1145,경기도 고양시 덕양구청,031-8075-5342,2020-05-15
카서비스투,03,경기도 고양시 덕양구 백양로 79,경기도 고양시 덕양구 화정동 976번지,37.63268807,126.8333997,2004-06-07,182,01,,,,,,02-406-6472,경기도 고양시 덕양구청,031-8075-5342,2020-05-15
대송카,03,경기도 고양시 덕양구 고양대로1315번길 39,경기도 고양시 덕양구 주교동 252-6번지,37.65805082,126.8296712,2003-03-25,100.2,01,,,,,,031-966-5522,경기도 고양시 덕양구청,031-8075-5342,2020-05-15
MBT,03,경기도 고양시 일산동구 성현로93번길 1,경기도 고양시 일산동구 성석동 988-20번지,37.70701122,126.7963956,2014-08-29,600,03,2020-02-13,,,,,031-976-6448,경기도 고양시 일산동구청,031-8075-6342,2020-05-15
빅 모터스,03,경기도 고양시 일산동구 고양대로1119번길 15,경기도 고양시 일산동구 식사동 509-1번지,37.6661748,126.8146972,2014-10-14,205,01,,,,,,070-8831-5149,경기도 고양시 일산동구청,031-8075-6342,2020-05-15
모든자동차정비센타,03,경기도 고양시 일산동구 성현로599번길 54,경기도 고양시 일산동구 사리현동 121-1번지,37.69512224,126.8444781,2014-10-21,410,01,,,,,,031-967-9026,경기도 고양시 일산동구청,031-8075-6342,2020-05-15
주식회사 피아이티오토모빌,03,경기도 고양시 일산동구 동국로 81-8,경기도 고양시 일산동구 식사동 1008-2번지,37.6795999,126.8027281,2015-01-28,1315,01,,,,,,,경기도 고양시 일산동구청,031-8075-6342,2020-05-15
타이어프로,03,경기도 고양시 일산동구 고양대로 1004,경기도 고양시 일산동구 식사동 1059-4번지,37.67389769,126.8049845,2015-09-14,992,01,,,,,,031-966-1007,경기도 고양시 일산동구청,031-8075-6342,2020-05-15
숲속 Car Care & Oil Shop,03,경기도 고양시 일산동구 숲속마을2로 145,경기도 고양시 일산동구 풍동 1247-2번지,37.67253512,126.7976836,2015-10-23,93.17,01,,,,,,,경기도 고양시 일산동구청,031-8075-6342,2020-05-15
아주오토리움㈜,03,경기도 고양시 일산동구 백마로 491,경기도 고양시 일산동구 풍동 149-12번지,37.66278959,126.8024536,2015-12-31,498.58,01,,,,,,031-904-8255,경기도 고양시 일산동구청,031-8075-6342,2020-05-15
KL모터스,03,경기도 고양시 일산동구 고봉로 761-44,경기도 고양시 일산동구 설문동 705-8번지,37.72544585,126.7927347,2016-02-25,655,01,,,,,,,경기도 고양시 일산동구청,031-8075-6342,2020-05-15
SJ모터스,03,경기도 고양시 일산동구 고봉로 682,경기도 고양시 일산동구 설문동 798-2번지,37.71752852,126.7894603,2016-03-14,108.55,01,,,,,,031-976-8879,경기도 고양시 일산동구청,031-8075-6342,2020-05-15
캡틴카센타,03,경기도 고양시 일산동구 하늘마을1로 14,경기도 고양시 일산동구 중산동 1813번지,37.67501244,126.7870673,2016-09-29,80.73,01,,,,,,,경기도 고양시 일산동구청,031-8075-6342,2020-05-15
대승자동차정비,03,경기도 고양시 일산동구 장대길 86-81,경기도 고양시 일산동구 장항동 572번지,37.6413988,126.7692123,2017-03-31,261.9,03,2019-05-27,,,,,,경기도 고양시 일산동구청,031-8075-6342,2020-05-15
타이어몽,03,경기도 고양시 일산동구 장항로 257,경기도 고양시 일산동구 장항동 578번지,37.64193907,126.770894,2018-02-12,199.1,01,,,,,,,경기도 고양시 일산동구청,031-8075-6342,2020-05-15
아즈펙토,03,경기도 고양시 일산동구 은마길151번길 71,경기도 고양시 일산동구 설문동 530-84번지,37.71805787,126.8042649,2018-08-16,197.89,01,,,,,,,경기도 고양시 일산동구청,031-8075-6342,2020-05-15
케이씨씨모터스㈜ 일산 풍동지점,03,경기도 고양시 일산동구 백마로 521-2,경기도 고양시 일산동구 풍동 113-10번지,37.66393195,126.8060246,2018-11-13,197.8,01,,,,,,031-813-5500,경기도 고양시 일산동구청,031-8075-6342,2020-05-15
카닥 테크샵 일산,03,경기도 고양시 일산동구 백마로 54,경기도 고양시 일산동구 장항동 541-1번지,37.64389013,126.761809,2019-02-18,89.13,01,,,,,,,경기도 고양시 일산동구청,031-8075-6342,2020-05-15
신성오토 주식회사,03,경기도 고양시 일산동구 성석로 275,경기도 고양시 일산동구 성석동 1904번지,37.7009295,126.7973557,2019-06-24,2406.4,01,,,,,,031-976-8921,경기도 고양시 일산동구청,031-8075-6342,2020-05-15
킴스커스텀 일산본점,03,경기도 고양시 일산동구 동국로197번길 10,경기도 고양시 일산동구 성석동 176-8번지,37.68690194,126.8096245,2019-08-09,198,01,,,,,,,경기도 고양시 일산동구청,031-8075-6342,2020-05-15
㈜모터원,03,경기도 고양시 덕양구 호수로 231,경기도 고양시 덕양구 내곡동 500-10번지,37.63042249,126.7952861,2017-01-04,510.5,01,,,,,,031-974-5588,경기도 고양시 덕양구청,031-8075-5342,2020-05-15
르노삼성자동차 지정정비코너 삼송점,03,경기도 고양시 덕양구 삼송로 287-2,경기도 고양시 덕양구 지축동 724-7번지,37.65338993,126.9059474,2017-04-25,196.1,01,,,,,,02-381-1121,경기도 고양시 덕양구청,031-8075-5342,2020-05-15
㈜카렉스 삼송점,03,경기도 고양시 덕양구 고양대로 1955,경기도 고양시 덕양구 동산동 370번지,37.64697631,126.8947784,2017-08-18,291.37,01,,,,,,031-5173-0002,경기도 고양시 덕양구청,031-8075-5342,2020-05-15
현대카센타 토당점,03,경기도 고양시 덕양구 중앙로 661,경기도 고양시 덕양구 토당동 892-4번지,37.62797719,126.8251708,1997-07-25,105,01,,,,,,031-971-8204,경기도 고양시 덕양구청,031-8075-5342,2020-05-15
제일엔진보링,04,경기도 고양시 일산동구 성석로 98,경기도 고양시 일산동구 성석동 877-11번지,37.68782909,126.7945232,2017-09-21,738,01,,,,,,031-918-0670,경기도 고양시 일산동구청,031-8075-6342,2020-05-15
용희보링MBT,04,경기도 고양시 일산동구 문원길170번길 44-17,경기도 고양시 일산동구 설문동 43-28번지,37.72048962,126.8184838,2017-10-20,990,01,,,,,,031-976-9457,경기도 고양시 일산동구청,031-8075-6342,2020-05-15
베스트 마일레오토서비스(일산점),03,경기도 고양시 일산동구 강송로113번길 7-1,경기도 고양시 일산동구 백석동 1228번지,37.64903139,126.7866004,1997-04-04,104,01,,,,,,031-901-5920,경기도 고양시 일산동구청,031-8075-6342,2020-05-15
영일카센타,03,경기도 고양시 일산서구 대산로223번길 8-2,경기도 고양시 일산서구 대화동 2141-10번지,37.67856338,126.7536505,1998-01-26,130,01,,,,,,031-918-9797,경기도 고양시 일산서구청,031-8075-7348,2020-05-15
오토오아시스 덕이동점,03,경기도 고양시 일산서구 덕이로 174,경기도 고양시 일산서구 덕이동 809-1번지,37.69405848,126.7410908,2008-08-29,132,01,,,,,,031-911-7818,경기도 고양시 일산서구청,031-8075-7348,2020-05-15
오토오아시스 롯데마트 주엽점,03,경기도 고양시 일산서구 중앙로 1496,경기도 고양시 일산서구 주엽동 15번지 문촌마을11단지아파트,37.67318966,126.7552416,2004-07-08,204,01,,,,,,031-912-2544,경기도 고양시 일산서구청,031-8075-7348,2020-05-15
오토오아시스 킨텍스점,03,경기도 고양시 일산서구 호수로 817,경기도 고양시 일산서구 대화동 2602번지,37.66799248,126.7516317,2010-08-24,141,01,,,,,,031-915-0143,경기도 고양시 일산서구청,031-8075-7348,2020-05-15
오토오아시스빅마켓킨텍스점,03,경기도 고양시 일산서구 주엽로 79,경기도 고양시 일산서구 대화동 1050-171번지,37.66727235,126.7536606,2014-11-07,314,01,,,,,,031-911-7466,경기도 고양시 일산서구청,031-8075-7348,2020-05-15
우리종합정비,03,경기도 고양시 일산서구 송포백송길 102,경기도 고양시 일산서구 덕이동 956-6번지,37.69075222,126.7371613,2004-01-30,383,01,,,,,,,경기도 고양시 일산서구청,031-8075-7348,2020-05-15
유로모터스,03,경기도 고양시 일산서구 멱절길 13,경기도 고양시 일산서구 법곳동 209-22번지,37.66070478,126.7253583,2009-04-09,322,01,,,,,,031-921-2213,경기도 고양시 일산서구청,031-8075-7348,2020-05-15
유제이,03,경기도 고양시 일산서구 덕산로243번길 84,경기도 고양시 일산서구 덕이동 1244-1번지,37.69901562,126.730628,2019-04-23,198,01,,,,,,,경기도 고양시 일산서구청,031-8075-7348,2020-05-15
은성카클리닉,03,경기도 고양시 일산서구 덕산로 306,경기도 고양시 일산서구 덕이동 1044-1번지,37.69627925,126.7365612,2008-12-05,148,01,,,,,,031-919-7114,경기도 고양시 일산서구청,031-8075-7348,2020-05-15
일등타이어,03,경기도 고양시 일산서구 경의로 823,경기도 고양시 일산서구 덕이동 219-1번지,37.69102618,126.7591286,2018-10-23,64,01,,,,,,,경기도 고양시 일산서구청,031-8075-7348,2020-05-15
일산모터스,03,경기도 고양시 일산서구 가좌로 10,경기도 고양시 일산서구 가좌동 145-1번지,37.69052142,126.7244683,1999-12-27,101,01,,,,,,031-923-2255,경기도 고양시 일산서구청,031-8075-7348,2020-05-15
일산북부점 기아오토큐,03,경기도 고양시 일산서구 고봉로 321,경기도 고양시 일산서구 일산동 574-1번지,37.68790074,126.7770201,1999-03-03,113,01,,,,,,031-976-8255,경기도 고양시 일산서구청,031-8075-7348,2020-05-15
에니카모터스,03,경기도 고양시 일산서구 고봉로329번길 1,경기도 고양시 일산서구 일산동 583-69번지,37.68852747,126.7768322,1998-08-12,214,01,,,,,,,경기도 고양시 일산서구청,031-8075-7348,2020-05-15
현대자동차대화남부점,03,경기도 고양시 일산서구 일산로725번길 6-3,경기도 고양시 일산서구 대화동 2162번지,37.67813455,126.7519516,2002-04-23,85,01,,,,,,031-914-4411,경기도 고양시 일산서구청,031-8075-7348,2020-05-15
현대카크리닉,03,경기도 고양시 일산서구 대산로212번길 24-27,경기도 고양시 일산서구 대화동 2117-5번지,37.67858859,126.7571193,2006-10-10,90,01,,,,,,031-911-7488,경기도 고양시 일산서구청,031-8075-7348,2020-05-15
현산카센터,03,경기도 고양시 일산서구 일청로 82,경기도 고양시 일산서구 일산동 1805번지,37.69065297,126.7745175,1998-11-19,396,01,,,,,,031-921-4144,경기도 고양시 일산서구청,031-8075-7348,2020-05-15
일산점기아오토큐,03,경기도 고양시 일산동구 일산로372번길 30-2,경기도 고양시 일산동구 정발산동 1338번지,37.66870573,126.7835993,2005-09-08,145,01,,,,,,031-916-8505,경기도 고양시 일산동구청,031-8075-6342,2020-05-15
A-ONE카프라자,03,경기도 고양시 일산동구 강송로87번길 3,경기도 고양시 일산동구 백석동 1245번지,37.64733354,126.7888429,2005-09-08,91,01,,,,,,031-932-3222,경기도 고양시 일산동구청,031-8075-6342,2020-05-15
쌍용카랜드,03,경기도 고양시 덕양구 호국로 1377,경기도 고양시 덕양구 대자동 311-15번지,37.6801236,126.8891043,2006-02-21,190,01,,,,,,031-963-5582,경기도 고양시 덕양구청,031-8075-5342,2020-05-15
서부LPG카크리닉,03,경기도 고양시 덕양구 통일로1154번길 15-20,경기도 고양시 덕양구 내유동 445-2번지,37.71810564,126.8504349,2006-05-09,104.44,01,,,,,,031-964-0798,경기도 고양시 덕양구청,031-8075-5342,2020-05-15
르노삼성자동차 지정정비코너 덕양 화정점,03,경기도 고양시 덕양구 성신로 6-23,경기도 고양시 덕양구 화정동 1146-2번지,37.62739327,126.8304905,2006-09-11,254.83,01,,,,,,031-978-7799,경기도 고양시 덕양구청,031-8075-5342,2020-05-15
덕양모터스,03,경기도 고양시 덕양구 삼원로1길 56,경기도 고양시 덕양구 삼송동 351-3번지,37.64441316,126.8755015,2007-09-21,156,01,,,,,,02-381-6348,경기도 고양시 덕양구청,031-8075-5342,2020-05-15
우리카서비스,03,경기도 고양시 덕양구 토당로162번길 72,경기도 고양시 덕양구 토당동 89-10번지,37.62539424,126.8214492,2008-04-14,83.89,01,,,,,,031-938-4650,경기도 고양시 덕양구청,031-8075-5342,2020-05-15
기아오토카서비스,03,경기도 고양시 덕양구 고양대로1290번길 4,경기도 고양시 덕양구 주교동 215번지,37.65712894,126.8276833,2008-07-24,190.35,01,,,,,,031-971-9343,경기도 고양시 덕양구청,031-8075-5342,2020-05-15
월드타이어,03,경기도 고양시 덕양구 동헌로 468,경기도 고양시 덕양구 고양동 176-12번지,37.70663229,126.903662,2009-08-31,63.37,01,,,,,,031-962-0824,경기도 고양시 덕양구청,031-8075-5342,2020-05-15
거성자동차공업사,03,경기도 고양시 덕양구 삼송로205번길 37,경기도 고양시 덕양구 삼송동 57-11번지,37.65538235,126.8966749,2018-01-18,102.6,01,,,,,,02-381-6833,경기도 고양시 덕양구청,031-8075-5342,2020-05-15
도일카센타,03,경기도 고양시 덕양구 유산길 14,경기도 고양시 덕양구 내유동 646-45번지,37.72557618,126.8446213,2010-07-21,198,01,,,,,,031-969-5747,경기도 고양시 덕양구청,031-8075-5342,2020-05-15
토당능곡점 현대자동차,03,경기도 고양시 덕양구 토당로 20,경기도 고양시 덕양구 토당동 869-1번지,37.61841575,126.8230109,2010-09-19,160.15,01,,,,,,031-972-1472,경기도 고양시 덕양구청,031-8075-5342,2020-05-15
한뫼카공업사,03,경기도 고양시 일산서구 탄중로 459-1,경기도 고양시 일산서구 일산동 580-26번지,37.68765606,126.7753202,2008-05-16,136,01,,,,,,031-976-8586,경기도 고양시 일산서구청,031-8075-7348,2020-05-15
한성카센터,03,경기도 고양시 일산서구 경의로 873,경기도 고양시 일산서구 덕이동 277-4번지,37.69557138,126.7594631,2011-07-16,90,01,,,,,,031-911-5942,경기도 고양시 일산서구청,031-8075-7348,2020-05-15
㈜오토반플러스,02,경기도 고양시 일산서구 법곳길115번길 95,경기도 고양시 일산서구 법곳동 1770번지,37.66004055,126.7218112,2015-07-17,826,01,,,,,,,경기도 고양시 일산서구청,031-8075-7348,2020-05-15
㈜유진모터스,02,경기도 고양시 일산서구 멱절길35번길 168-139,경기도 고양시 일산서구 법곳동 179-4번지,37.65897363,126.7294898,2018-05-03,1310,01,,,,,,031-924-3395,경기도 고양시 일산서구청,031-8075-7348,2020-05-15
㈜일산자동차검사정비사업소,01,경기도 고양시 일산서구 하이파크3로 9,경기도 고양시 일산서구 덕이동 413-7번지,37.6926322,126.7532638,2014-03-10,3429,01,,,,,,031-921-0404,경기도 고양시 일산서구청,031-8075-7348,2020-05-15
㈜플러스오토,02,경기도 고양시 일산동구 백마로 34,경기도 고양시 일산동구 장항동 541-5번지,37.642553,126.7606403,2016-02-23,559,03,2019-05-28,,,,,,경기도 고양시 일산동구청,031-8075-6342,2020-05-15
텔미자동차정비,01,경기도 고양시 일산동구 견달산로 333,경기도 고양시 일산동구 문봉동 100-16번지,37.69575521,126.8201119,2010-06-04,1790,01,,,,,,031-965-4572,경기도 고양시 일산동구청,031-8075-6342,2020-05-15
이화모터스,02,경기도 고양시 일산동구 은마길 75,경기도 고양시 일산동구 설문동 494-11번지,37.71492614,126.8073095,2005-09-21,411.75,01,,,,,,031-977-0977,경기도 고양시 일산동구청,031-8075-6342,2020-05-15
주식회사서부현대자동차공업사,02,경기도 고양시 일산동구 성석로 148,경기도 고양시 일산동구 성석동 779-2번지,37.69044184,126.7989255,2008-07-11,792,01,,,,,,031-913-0789,경기도 고양시 일산동구청,031-8075-6342,2020-05-15
도깨비공업사,02,경기도 고양시 일산동구 고봉로 739,경기도 고양시 일산동구 설문동 722-6번지,37.72313039,126.7901065,2009-05-28,933,01,,,,,,031-904-6112,경기도 고양시 일산동구청,031-8075-6342,2020-05-15
붕붕모터스,02,경기도 고양시 일산동구 성현로 532-35,경기도 고양시 일산동구 사리현동 478-6번지,37.69471998,126.8402095,2010-05-19,776,01,,,,,,070-4138-8297,경기도 고양시 일산동구청,031-8075-6342,2020-05-15
엠 모터스,02,경기도 고양시 일산동구 견달산로225번길 66,경기도 고양시 일산동구 식사동 288-103번지,37.68757763,126.8177697,2011-08-04,409.95,01,,,,,,031-965-6555,경기도 고양시 일산동구청,031-8075-6342,2020-05-15
문봉현대공업사,02,경기도 고양시 일산동구 견달산로 347,경기도 고양시 일산동구 문봉동 101-22번지,37.69691687,126.8200482,2012-02-02,645,01,,,,,,,경기도 고양시 일산동구청,031-8075-6342,2020-05-15
차사랑3급공업사,03,경기도 고양시 일산동구 장항로 191,경기도 고양시 일산동구 장항동 611번지,37.63896981,126.7772516,2002-12-31,83,01,,,,,,031-907-4640,경기도 고양시 일산동구청,031-8075-6342,2020-05-15
부경카,03,경기도 고양시 일산동구 견달산로161번길 8,경기도 고양시 일산동구 식사동 1194-1번지,37.68135575,126.8190814,2003-01-13,102,01,,,,,,031-966-8602,경기도 고양시 일산동구청,031-8075-6342,2020-05-15
월드자동차공업사,03,경기도 고양시 일산동구 견달산로 260,경기도 고양시 일산동구 식사동 248번지,37.68905184,126.8201273,2003-04-03,131.85,01,,,,,,031-962-2865,경기도 고양시 일산동구청,031-8075-6342,2020-05-15
종합카,03,경기도 고양시 일산동구 장항로 134,경기도 고양시 일산동구 백석동 907-307번지,37.63563394,126.7822837,2003-08-23,77,01,,,,,,031-903-9761,경기도 고양시 일산동구청,031-8075-6342,2020-05-15
소망자동차써비스,03,경기도 고양시 일산동구 호수로430번길 47,경기도 고양시 일산동구 백석동 1435-3번지,37.64478521,126.781111,2003-08-25,93,01,,,,,,031-905-3052,경기도 고양시 일산동구청,031-8075-6342,2020-05-15
금강매직카,03,경기도 고양시 일산동구 성현로 59,경기도 고양시 일산동구 성석동 984-103번지,37.70818894,126.7933546,2003-11-26,72,01,,,,,,031-977-2577,경기도 고양시 일산동구청,031-8075-6342,2020-05-15
명성카,03,경기도 고양시 일산동구 장항로 122,경기도 고양시 일산동구 백석동 1104-6번지,37.63482221,126.783075,2003-11-28,140,01,,,,,,031-932-1788,경기도 고양시 일산동구청,031-8075-6342,2020-05-15
한박사자동차공업사,03,경기도 고양시 일산동구 백석로108번길 53-2,경기도 고양시 일산동구 백석동 1174-4번지,37.64726778,126.7914597,2004-04-10,105,01,,,,,,031-907-8243,경기도 고양시 일산동구청,031-8075-6342,2020-05-15
스피드메이트 이마트 풍산점,03,경기도 고양시 일산동구 무궁화로 237,경기도 고양시 일산동구 중산동 1809번지,37.67385091,126.7871429,2014-07-24,166,01,,,,,,,경기도 고양시 일산동구청,031-8075-6342,2020-05-15
코리아리모엔터프라이즈,03,경기도 고양시 일산서구 송산로 202,경기도 고양시 일산서구 구산동 582-12번지,37.68358841,126.7011539,2011-09-19,192,01,,,,,,031-925-0666,경기도 고양시 일산서구청,031-8075-7348,2020-05-15
코스모자동차공업사,03,경기도 고양시 일산서구 산현로 124,경기도 고양시 일산서구 일산동 1726번지,37.69191481,126.7747676,1998-10-19,83,01,,,,,,031-921-0761,경기도 고양시 일산서구청,031-8075-7348,2020-05-15
크라이슬러 일산서비스센터,03,경기도 고양시 일산서구 덕이로 50-20,경기도 고양시 일산서구 덕이동 452번지,37.69072975,126.7551885,2010-07-19,1068,01,,,,,,031-922-0117,경기도 고양시 일산서구청,031-8075-7348,2020-05-15
킨텍스점 기아오토규,03,경기도 고양시 일산서구 대산로211번길 3,경기도 고양시 일산서구 대화동 2145번지,37.67795006,126.7550673,1999-10-16,46,01,,,,,,031-917-8086,경기도 고양시 일산서구청,031-8075-7348,2020-05-15
타이어스페셜,03,경기도 고양시 일산서구 덕이로 270,경기도 고양시 일산서구 덕이동 1107-1번지,37.70063196,126.734599,2009-08-31,198,01,,,,,,031-912-8942,경기도 고양시 일산서구청,031-8075-7348,2020-05-15
타이어프로 킨텍스점,03,경기도 고양시 일산서구 대수길 3-1,경기도 고양시 일산서구 대화동 757-4번지,37.67216466,126.737779,2014-10-23,199,01,,,,,,031-914-7574,경기도 고양시 일산서구청,031-8075-7348,2020-05-15
탄현카랜드,03,경기도 고양시 일산서구 현중로26번길 23-1,경기도 고양시 일산서구 탄현동 1496-7번지,37.69334554,126.7691668,2007-12-21,169,01,,,,,,031-922-0010,경기도 고양시 일산서구청,031-8075-7348,2020-05-15
탑모터스 대화점,03,경기도 고양시 일산서구 호수로838번길 73-1,경기도 고양시 일산서구 대화동 2256-4번지,37.6727494,126.7515161,1998-09-19,231,01,,,,,,031-916-3414,경기도 고양시 일산서구청,031-8075-7348,2020-05-15
카젠덕이점,03,경기도 고양시 일산서구 덕이로 78-12,경기도 고양시 일산서구 덕이동 521-1번지,37.6913763,126.7507192,2008-12-09,198,01,,,,,,031-911-8270,경기도 고양시 일산서구청,031-8075-7348,2020-05-15
테로손,03,경기도 고양시 일산서구 미래로 184-15,경기도 고양시 일산서구 덕이동 558-3번지,37.69462064,126.7477196,2019-10-07,511,01,,,,,,,경기도 고양시 일산서구청,031-8075-7348,2020-05-15
티스테이션 대화점,03,경기도 고양시 일산서구 성저로 53-11,경기도 고양시 일산서구 대화동 2078번지,37.68521862,126.7530934,2013-10-04,231,01,,,,,,031-913-2153,경기도 고양시 일산서구청,031-8075-7348,2020-05-15
성원카,03,경기도 고양시 일산동구 성석로 179,경기도 고양시 일산동구 성석동 767-2번지,37.69295571,126.7971615,1999-01-11,157,01,,,,,,031-975-7654,경기도 고양시 일산동구청,031-8075-6342,2020-05-15
성우24시카독크,03,경기도 고양시 일산동구 고양대로1037번길 5,경기도 고양시 일산동구 식사동 619-38번지,37.6723139,126.8078551,1999-01-13,103,01,,,,,,031-963-6844,경기도 고양시 일산동구청,031-8075-6342,2020-05-15
스피드메이트고일점,03,경기도 고양시 일산동구 백마로 455,경기도 고양시 일산동구 풍동 840번지,37.66146534,126.7986598,1999-02-06,228,01,,,,,,,경기도 고양시 일산동구청,031-8075-6342,2020-05-15
한솔카크리닉,03,경기도 고양시 일산서구 송산로 210,경기도 고양시 일산서구 구산동 574-1번지,37.68305365,126.7020312,2001-11-14,12,01,,,,,,031-923-9880,경기도 고양시 일산서구청,031-8075-7348,2020-05-15
한국자동차공업사,03,경기도 고양시 일산서구 원일로 62,경기도 고양시 일산서구 일산동 610-63번지,37.68686575,126.7691778,2010-10-06,281,01,,,,,,031-975-9058,경기도 고양시 일산서구청,031-8075-7348,2020-05-15
신일산교통정비소,03,경기도 고양시 일산동구 고봉로678번길 47,경기도 고양시 일산동구 설문동 787-2번지,37.71657146,126.7919031,2008-12-01,197,01,,,,,,031-977-6142,경기도 고양시 일산동구청,031-8075-6342,2020-05-15
지성오토랜드,03,경기도 고양시 일산동구 일산로428번길 27,경기도 고양시 일산동구 정발산동 1226-8번지,37.67384146,126.7801035,2009-02-07,105,01,,,,,,031-921-0609,경기도 고양시 일산동구청,031-8075-6342,2020-05-15
스피드메이트일산제일점,03,경기도 고양시 일산동구 고봉로 473,경기도 고양시 일산동구 성석동 1305-24번지,37.70078889,126.7808079,2009-02-12,77,01,,,,,,031-975-0605,경기도 고양시 일산동구청,031-8075-6342,2020-05-15
르노삼성자동차지정정비코너풍동점,03,경기도 고양시 일산동구 고양대로 896,경기도 고양시 일산동구 풍동 638-1번지,37.67789998,126.794525,2009-05-29,110,01,,,,,,031-905-9955,경기도 고양시 일산동구청,031-8075-6342,2020-05-15
조박사자동차공업사,03,경기도 고양시 일산동구 일산로463번길 5-8,경기도 고양시 일산동구 정발산동 1148-2번지,37.67366959,126.7756855,2009-06-04,105,01,,,,,,070-8874-7611,경기도 고양시 일산동구청,031-8075-6342,2020-05-15
현대자동차공업사,03,경기도 고양시 일산동구 문봉길 56,경기도 고양시 일산동구 문봉동 224-7번지,37.70495444,126.8174034,2009-06-05,105,01,,,,,,031-975-1142,경기도 고양시 일산동구청,031-8075-6342,2020-05-15
카플러스,03,경기도 고양시 일산동구 숲속마을2로 180,경기도 고양시 일산동구 풍동 1251-4번지,37.67360273,126.7998882,2009-07-18,98,01,,,,,,031-907-3933,경기도 고양시 일산동구청,031-8075-6342,2020-05-15
동진카센타,03,경기도 고양시 일산동구 공릉천로 26,경기도 고양시 일산동구 사리현동 124-1번지,37.69570859,126.8445484,2009-09-18,199,01,,,,,,031-968-0909,경기도 고양시 일산동구청,031-8075-6342,2020-05-15
자동차세상(C.W)모터스,03,경기도 고양시 일산동구 장항로 226-19,경기도 고양시 일산동구 장항동 590-2번지,37.64204424,126.7748331,2009-12-21,199,01,,,,,,031-932-9959,경기도 고양시 일산동구청,031-8075-6342,2020-05-15
코뿔소카센타,03,경기도 고양시 일산동구 하늘마을로93번길 30,경기도 고양시 일산동구 중산동 1706번지,37.67999773,126.7849796,2010-03-03,106,01,,,,,,031-918-3248,경기도 고양시 일산동구청,031-8075-6342,2020-05-15
고양현대카센타,03,경기도 고양시 일산동구 성현로482번길 3-3,경기도 고양시 일산동구 사리현동 641-19번지,37.69750643,126.8358686,2010-06-04,128,01,,,,,,031-969-5992,경기도 고양시 일산동구청,031-8075-6342,2020-05-15
제일카센타,03,경기도 고양시 일산동구 지영로 189,경기도 고양시 일산동구 지영동 301-13번지,37.7145122,126.8280491,2010-08-27,160,01,,,,,,031-921-9992,경기도 고양시 일산동구청,031-8075-6342,2020-05-15
동양공업사,03,경기도 고양시 일산동구 고봉로531번길 21,경기도 고양시 일산동구 성석동 2142번지,37.70540214,126.7813335,2010-10-21,957,01,,,,,,031-976-0904,경기도 고양시 일산동구청,031-8075-6342,2020-05-15
NOBLESSE MOTORS.NET,03,경기도 고양시 일산동구 고양대로 1139,경기도 고양시 일산동구 식사동 513-3번지,37.6655478,126.8159653,2010-11-24,158,03,2019-08-26,,,,,,경기도 고양시 일산동구청,031-8075-6342,2020-05-15
여우카,03,경기도 고양시 일산동구 백석로71번길 6-3,경기도 고양시 일산동구 백석동 1210-3번지,37.64732868,126.7857381,2011-02-18,105,01,,,,,,031-907-0976,경기도 고양시 일산동구청,031-8075-6342,2020-05-15
㈜라이프인스타일,03,경기도 고양시 일산동구 일산로 429,경기도 고양시 일산동구 정발산동 1205번지,37.67269045,126.7785807,2011-05-02,232,03,2019-08-26,,,,,,경기도 고양시 일산동구청,031-8075-6342,2020-05-15
협동공업사,03,경기도 고양시 덕양구 화랑로 165,경기도 고양시 덕양구 화전동 380-9번지,37.61216193,126.872084,1999-10-01,70.08,01,,,,,,02-372-2143,경기도 고양시 덕양구청,031-8075-5342,2020-05-15
신라카센터,03,경기도 고양시 덕양구 토당로 180,경기도 고양시 덕양구 토당동 832-5번지,37.62862657,126.8225209,2000-01-05,77,01,,,,,,031-972-4373,경기도 고양시 덕양구청,031-8075-5342,2020-05-15
LG오토오아시스 스타점,03,경기도 고양시 덕양구 은빛로 59,경기도 고양시 덕양구 화정동 907번지,37.63800683,126.8343945,2000-02-11,84.05,01,,,,,,031-967-5590,경기도 고양시 덕양구청,031-8075-5342,2020-05-15
원 모터스,03,경기도 고양시 일산동구 진밭로 53,경기도 고양시 일산동구 성석동 346-2번지,37.70081721,126.8029427,2012-01-27,587,01,,,,,,,경기도 고양시 일산동구청,031-8075-6342,2020-05-15
오토오아시스 홈플러스 고양터미널점,03,경기도 고양시 일산동구 중앙로 1036,경기도 고양시 일산동구 백석동 1242번지,37.6431792,126.7896581,2012-02-24,245,01,,,,,,,경기도 고양시 일산동구청,031-8075-6342,2020-05-15
마이네키정발산점,03,경기도 고양시 일산동구 경의로 459-58,경기도 고양시 일산동구 정발산동 1272-6번지,37.66989792,126.7860509,2010-07-27,85,01,,,,,,,경기도 고양시 일산동구청,031-8075-6342,2020-05-15
백송카센타,03,경기도 고양시 일산동구 고양대로 900,경기도 고양시 일산동구 풍동 638-23번지,37.67784073,126.7949019,2010-07-28,90,03,2019-08-26,,,,,,경기도 고양시 일산동구청,031-8075-6342,2020-05-15
튜닝파크,03,경기도 고양시 일산동구 한류월드로 64,경기도 고양시 일산동구 장항동 673-59번지,37.64726596,126.7563335,2012-10-16,192,01,,,,,,031-963-1179,경기도 고양시 일산동구청,031-8075-6342,2020-05-15
스피드메이트식사동점,03,경기도 고양시 일산동구 동국로 28-6,경기도 고양시 일산동구 식사동 662-19번지,37.67640784,126.8081864,2013-03-29,139,01,,,,,,,경기도 고양시 일산동구청,031-8075-6342,2020-05-15
㈜ 하우머치타이어 설문점,03,경기도 고양시 일산동구 고봉로 688,경기도 고양시 일산동구 설문동 738-3번지,37.71833906,126.7894244,2013-05-13,173,01,,,,,,031-975-8884,경기도 고양시 일산동구청,031-8075-6342,2020-05-15
시대자동차서비스,03,경기도 고양시 일산동구 장항로 114,경기도 고양시 일산동구 백석동 1104-35번지,37.63429056,126.7839447,2013-08-16,434,03,2019-08-26,,,,,,경기도 고양시 일산동구청,031-8075-6342,2020-05-15
밝은 카 서비스,03,경기도 고양시 일산동구 견달산로 237,경기도 고양시 일산동구 식사동 1157-4번지,37.68714681,126.819738,2013-10-28,206,01,,,,,,031-965-1094,경기도 고양시 일산동구청,031-8075-6342,2020-05-15
㈜하우머치타이어,03,경기도 고양시 일산동구 식사로 2,경기도 고양시 일산동구 식사동 575-3번지,37.66710057,126.8132091,2013-12-18,236,01,,2019-08-26,,,,031-962-2455,경기도 고양시 일산동구청,031-8075-6342,2020-05-15
남지카공업사,03,경기도 고양시 일산동구 고봉로678번길 9-10,경기도 고양시 일산동구 설문동 796-2번지,37.71717528,126.7901579,2014-01-08,180,01,,,,,,031-977-7090,경기도 고양시 일산동구청,031-8075-6342,2020-05-15
㈜태극타이어,03,경기도 고양시 일산동구 백마로 472,경기도 고양시 일산동구 풍동 882-2번지,37.66145811,126.8008769,2014-02-10,289,01,,,,,,031-932-9111,경기도 고양시 일산동구청,031-8075-6342,2020-05-15
한라상사,03,경기도 고양시 일산동구 성석로 177-1,경기도 고양시 일산동구 성석동 766-9번지,37.69300009,126.7968774,2014-02-28,796,01,,,,,,031-976-8288,경기도 고양시 일산동구청,031-8075-6342,2020-05-15
광일자동차공업사,03,경기도 고양시 일산동구 호수로446번길 7-4,경기도 고양시 일산동구 백석동 1456-5번지,37.64452195,126.7783051,2002-04-29,110,01,,,,,,031-908-8838,경기도 고양시 일산동구청,031-8075-6342,2020-05-15
달구지카크리닉,03,경기도 고양시 일산동구 강촌로26번길 73-2,경기도 고양시 일산동구 백석동 1424-8번지,37.64419402,126.7823217,2002-08-17,74,01,,,,,,031-904-0220,경기도 고양시 일산동구청,031-8075-6342,2020-05-15
성우자동차보링공업사,04,경기도 고양시 일산동구 장대길 32-1,경기도 고양시 일산동구 장항동 597-11번지,37.63581754,126.7730318,1998-04-09,995,01,,,,,,031-908-2300,경기도 고양시 일산동구청,031-8075-6342,2020-05-15
대선자동차보링,04,경기도 고양시 일산동구 장항로 139-36,경기도 고양시 일산동구 장항동 623-55번지,37.63472175,126.7803235,2001-10-26,197.5,01,,,,,,031-907-4523,경기도 고양시 일산동구청,031-8075-6342,2020-05-15
일산보링자동차공업사,04,경기도 고양시 일산동구 공릉천로 92-8,경기도 고양시 일산동구 사리현동 238번지,37.70107727,126.8471754,2003-10-02,308,01,,,,,,031-977-0073,경기도 고양시 일산동구청,031-8075-6342,2020-05-15
화승보링공업사,04,경기도 고양시 일산동구 노첨길56번길 50,경기도 고양시 일산동구 장항동 623-25번지,37.63474362,126.7789522,2004-03-18,267,01,,,,,,031-902-6488,경기도 고양시 일산동구청,031-8075-6342,2020-05-15
경오자동차보링공업사,04,경기도 고양시 일산동구 사리현로 41,경기도 고양시 일산동구 식사동 257번지,37.68872523,126.8244183,2008-07-07,525,01,,,,,,,경기도 고양시 일산동구청,031-8075-6342,2020-05-15
현대보링,04,경기도 고양시 일산동구 장대길 118,경기도 고양시 일산동구 장항동 557-16번지,37.63994322,126.7642962,2014-10-24,429.75,03,2020-03-17,,,,,,경기도 고양시 일산동구청,031-8075-6342,2020-05-15
후곡카프라자,03,경기도 고양시 일산서구 일산로 571,경기도 고양시 일산서구 일산동 1060번지,37.6788449,126.764437,1998-10-01,148,01,,,,,,031-919-5321,경기도 고양시 일산서구청,031-8075-7348,2020-05-15
명중카,03,경기도 고양시 일산동구 성현로 626,경기도 고양시 일산동구 사리현동 23-29번지,37.69381914,126.8503604,2015-12-01,330,01,,,,,,031-966-0809,경기도 고양시 일산동구청,031-8075-6342,2020-05-15
오토랜드카서비스,03,경기도 고양시 일산동구 장항로 39-3,경기도 고양시 일산동구 백석동 1123-4번지,37.62993774,126.7899973,2016-01-29,242,01,,,,,,031-971-6227,경기도 고양시 일산동구청,031-8075-6342,2020-05-15
㈜프릭사모터스,03,경기도 고양시 일산동구 백마로 489,경기도 고양시 일산동구 풍동 149-12번지,37.66264373,126.8022859,2016-03-28,1112,01,,,,,,031-904-1200,경기도 고양시 일산동구청,031-8075-6342,2020-05-15
더 타이어샵 일산점,03,경기도 고양시 일산서구 덕이로 70,경기도 고양시 일산서구 덕이동 426-3번지,37.69076951,126.7517961,2010-08-26,217,01,,,,,,031-911-5558,경기도 고양시 일산서구청,031-8075-7348,2020-05-15
덕이모터스,03,경기도 고양시 일산서구 신덕로 53,경기도 고양시 일산서구 덕이동 1096-3번지,37.70139621,126.737922,2005-05-31,198,01,,,,,,031-922-0951,경기도 고양시 일산서구청,031-8075-7348,2020-05-15
덕이점 기아오토큐,03,경기도 고양시 일산서구 송산로 523,경기도 고양시 일산서구 덕이동 937-1번지,37.69054994,126.7353434,2003-12-10,274,01,,,,,,031-914-7782,경기도 고양시 일산서구청,031-8075-7348,2020-05-15
드림카센타,03,경기도 고양시 일산서구 덕이로 36,경기도 고양시 일산서구 덕이동 475번지,37.68968157,126.755455,2002-08-05,73,01,,,,,,031-917-0451,경기도 고양시 일산서구청,031-8075-7348,2020-05-15
드림카써비스,03,경기도 고양시 일산서구 성저로42번길 1,경기도 고양시 일산서구 대화동 2053번지,37.68372559,126.7526086,2000-12-04,81,01,,,,,,031-922-1937,경기도 고양시 일산서구청,031-8075-7348,2020-05-15
로건서비스,03,경기도 고양시 일산서구 법곳길115번길 82-25,경기도 고양시 일산서구 법곳동 239-1번지,37.66126059,126.7226226,2019-05-29,427,01,,,,,,1544-6072,경기도 고양시 일산서구청,031-8075-7348,2020-05-15
마린팩토리,03,경기도 고양시 일산서구 구산로 121,경기도 고양시 일산서구 구산동 366-3번지,37.69440072,126.704258,2013-04-12,197,01,,,,,,070-8805-0846,경기도 고양시 일산서구청,031-8075-7348,2020-05-15
마스타자동차관리(대화지사),03,경기도 고양시 일산서구 일산로635번길 32-2,경기도 고양시 일산서구 대화동 2109-9번지,37.68053557,126.7575437,1998-11-20,230,01,,,,,,031-916-0072,경기도 고양시 일산서구청,031-8075-7348,2020-05-15
건국공업사,03,경기도 고양시 일산서구 성저로 53-12,경기도 고양시 일산서구 대화동 2077-11번지,37.68501694,126.7531576,2000-06-14,111,01,,,,,,031-916-5497,경기도 고양시 일산서구청,031-8075-7348,2020-05-15
티타이어 탄현점,03,경기도 고양시 일산서구 일청로 141,경기도 고양시 일산서구 탄현동 8-52번지,37.69559968,126.7775503,2010-04-12,989,01,,,,,,031-911-8922,경기도 고양시 일산서구청,031-8075-7348,2020-05-15
파인카,03,경기도 고양시 일산서구 덕산로243번길 84,경기도 고양시 일산서구 덕이동 1244-1번지,37.69901562,126.730628,2014-07-11,198,01,,,,,,,경기도 고양시 일산서구청,031-8075-7348,2020-05-15
포스,03,경기도 고양시 일산서구 법곳길 94,경기도 고양시 일산서구 법곳동 143-3번지,37.66499349,126.7269337,2002-04-23,843,01,,,,,,031-922-7932,경기도 고양시 일산서구청,031-8075-7348,2020-05-15
포포타운,03,경기도 고양시 일산서구 하이파크3로 24,경기도 고양시 일산서구 덕이동 400-1번지,37.69384464,126.7539945,2015-06-01,134,01,,,,,,031-906-8629,경기도 고양시 일산서구청,031-8075-7348,2020-05-15
하이텍오토랜드,03,경기도 고양시 일산서구 덕이로 195,경기도 고양시 일산서구 덕이동 993번지,37.69520097,126.7394813,1998-05-06,115,01,,,,,,031-921-6140,경기도 고양시 일산서구청,031-8075-7348,2020-05-15
프라임 모터스,01,경기도 고양시 덕양구 통일로1031번길 366-6,경기도 고양시 덕양구 내유동 379-5번지,37.71618391,126.8431533,2009-03-25,398.38,01,,,,,,031-964-7002,경기도 고양시 덕양구청,031-8075-5342,2020-05-15
애니카랜드정발산점,03,경기도 고양시 일산동구 율천로7번길 3,경기도 고양시 일산동구 정발산동 1334-8번지,37.66661713,126.7837694,1997-04-04,104,01,,,,,,031-906-8255,경기도 고양시 일산동구청,031-8075-6342,2020-05-15
일산동부점현대자동차,03,경기도 고양시 일산동구 산두로213번길 34,경기도 고양시 일산동구 정발산동 1248-2번지,37.67410469,126.7794191,1997-04-04,230,01,,,,,,031-916-5578,경기도 고양시 일산동구청,031-8075-6342,2020-05-15
카트라스,03,경기도 고양시 일산동구 산두로 8-1,경기도 고양시 일산동구 마두동 915-5번지,37.66022623,126.7878857,1997-04-29,72,01,,,,,,031-902-3825,경기도 고양시 일산동구청,031-8075-6342,2020-05-15
동윤카인테리어,03,경기도 고양시 일산동구 일산로358번길 51,경기도 고양시 일산동구 정발산동 1352-8번지,37.66833574,126.7852943,1997-04-29,114,01,,,,,,031-903-9906,경기도 고양시 일산동구청,031-8075-6342,2020-05-15
성석동부점현대자동차,03,경기도 고양시 일산동구 성석로 325,경기도 고양시 일산동구 성석동 973-12번지,37.70486492,126.7943043,1997-04-29,157,01,,,,,,031-965-8591,경기도 고양시 일산동구청,031-8075-6342,2020-05-15
백석자동차써비스,03,경기도 고양시 일산동구 일산로 73,경기도 고양시 일산동구 백석동 1263번지,37.6446915,126.7895203,1997-04-29,180,01,,,,,,031-906-6829,경기도 고양시 일산동구청,031-8075-6342,2020-05-15
휴먼 & 카,03,경기도 고양시 일산동구 일산로 143,경기도 고양시 일산동구 백석동 1146번지,37.64947153,126.7926157,1997-05-26,133,01,,,,,,031-906-4155,경기도 고양시 일산동구청,031-8075-6342,2020-05-15
백송카마스타,03,경기도 고양시 일산동구 강송로74번길 72-15,경기도 고양시 일산동구 백석동 1149번지,37.6498441,126.7920431,1997-05-26,101,01,,,,,,031-904-3155,경기도 고양시 일산동구청,031-8075-6342,2020-05-15
호수카써비스,03,경기도 고양시 일산동구 강촌로 24,경기도 고양시 일산동구 백석동 1452번지,37.64630462,126.7790465,1997-07-03,117,01,,,,,,031-901-8272,경기도 고양시 일산동구청,031-8075-6342,2020-05-15
월드카,03,경기도 고양시 일산동구 백석로108번길 16,경기도 고양시 일산동구 백석동 1161-2번지,37.64834209,126.7896651,1997-09-10,103,01,,,,,,031-906-2067,경기도 고양시 일산동구청,031-8075-6342,2020-05-15
auto master,03,경기도 고양시 일산동구 일산로441번길 59,경기도 고양시 일산동구 정발산동 1189-2번지,37.67088081,126.7761053,1997-09-10,100,01,,,,,,031-916-2324,경기도 고양시 일산동구청,031-8075-6342,2020-05-15
쿠스타코리아,03,경기도 고양시 일산동구 강송로87번길 4,경기도 고양시 일산동구 백석동 1244-6번지,37.64746692,126.7886707,1997-11-26,73,01,,,,,,031-904-0321,경기도 고양시 일산동구청,031-8075-6342,2020-05-15
자동차병원,03,경기도 고양시 일산동구 장항로 267,경기도 고양시 일산동구 장항동 566-49번지,37.64223648,126.7699237,1997-11-26,155,01,,,,,,031-906-0037,경기도 고양시 일산동구청,031-8075-6342,2020-05-15
태영상사,03,경기도 고양시 일산동구 고봉로 608,경기도 고양시 일산동구 성석동 1246-80번지,37.71108316,126.7882721,2011-08-22,170,01,,,,,,031-977-8981,경기도 고양시 일산동구청,031-8075-6342,2020-05-15
티스테이션,03,경기도 고양시 일산동구 대산로 15,경기도 고양시 일산동구 정발산동 679번지,37.6695746,126.7743925,2008-10-24,144,01,,,,,,031-924-5345,경기도 고양시 일산동구청,031-8075-6342,2020-05-15
일산오토자동차공업사,03,경기도 고양시 일산서구 덕이로 78-4,경기도 고양시 일산서구 덕이동 522-13번지,37.69095143,126.7509066,2003-04-11,191,01,,,,,,031-918-6611,경기도 고양시 일산서구청,031-8075-7348,2020-05-15
일산투카공업사,03,경기도 고양시 일산서구 대화로 49,경기도 고양시 일산서구 법곳동 751-10번지,37.66671746,126.7274941,1999-10-20,170,01,,,,,,031-917-4465,경기도 고양시 일산서구청,031-8075-7348,2020-05-15
일신자동차,03,경기도 고양시 일산서구 호수로838번길 8-2,경기도 고양시 일산서구 대화동 2288번지,37.6700071,126.7499429,1998-07-31,231,01,,,,,,031-919-1559,경기도 고양시 일산서구청,031-8075-7348,2020-05-15
자유로오토월드,03,경기도 고양시 일산서구 송산로 24,경기도 고양시 일산서구 구산동 1525번지,37.68340578,126.6822994,2008-02-21,326,01,,,,,,031-925-1263,경기도 고양시 일산서구청,031-8075-7348,2020-05-15
장성오토카써비스,03,경기도 고양시 일산서구 일산로803번길 6-5,경기도 고양시 일산서구 대화동 2300-12번지,37.67173544,126.7475296,1999-02-13,231,01,,,,,,031-922-4040,경기도 고양시 일산서구청,031-8075-7348,2020-05-15
제이엠모터스,03,경기도 고양시 일산서구 탄중로 79,경기도 고양시 일산서구 덕이동 438-2번지,37.69155222,126.7538298,2004-07-08,445,01,,,,,,031-921-8282,경기도 고양시 일산서구청,031-8075-7348,2020-05-15
㈜가온누리엠,03,경기도 고양시 일산서구 멱절길124번길 6-3,경기도 고양시 일산서구 대화동 1926-32번지,37.6578691,126.7334785,2015-06-03,248,01,,,,,,031-995-7300,경기도 고양시 일산서구청,031-8075-7348,2020-05-15
㈜대화로점 현대자동차,03,경기도 고양시 일산서구 대화로 83,경기도 고양시 일산서구 대화동 1484-2번지,37.6687811,126.730021,2017-03-16,406,01,,,,,,031-926-3345,경기도 고양시 일산서구청,031-8075-7348,2020-05-15
㈜동아타이어,03,경기도 고양시 일산서구 덕산로 22,경기도 고양시 일산서구 구산동 354번지,37.6956079,126.7056501,2016-08-03,198,01,,,,,,031-925-4005,경기도 고양시 일산서구청,031-8075-7348,2020-05-15
주식회사 H.Y.S 모터스,03,경기도 고양시 일산서구 송산로 369,경기도 고양시 일산서구 가좌동 997번지,37.68491356,126.7197955,2016-07-07,399,01,,,,,,031-924-0283,경기도 고양시 일산서구청,031-8075-7348,2020-05-15
주식회사타이어엔샵,03,경기도 고양시 일산서구 덕산로 166,경기도 고양시 일산서구 가좌동 493-40번지,37.69432356,126.721411,2003-01-20,230,01,,,,,,031-923-2214,경기도 고양시 일산서구청,031-8075-7348,2020-05-15
㈜웨이브모터스,03,경기도 고양시 일산서구 산남로 213,경기도 고양시 일산서구 가좌동 581-1번지,37.70031312,126.7168257,2015-11-23,586,01,,,,,,031-911-7555,경기도 고양시 일산서구청,031-8075-7348,2020-05-15
㈜제이앤제이 오토서비스,03,경기도 고양시 일산서구 덕산로57번길 13,경기도 고양시 일산서구 구산동 204-2번지,37.6954995963,126.7084761095,2017-06-23,983,01,,,,,,,경기도 고양시 일산서구청,031-8075-7348,2020-05-15
진관카센타,03,경기도 고양시 일산서구 일청로 93,경기도 고양시 일산서구 일산동 1916번지,37.6917847348,126.774504,1998-07-31,82,01,,,,,,031-921-6085,경기도 고양시 일산서구청,031-8075-7348,2020-05-15
신백제자동차공업사,03,경기도 고양시 일산동구 견달산로 251,경기도 고양시 일산동구 식사동 1151번지,37.68845868,126.8193771,1998-02-06,243,01,,,,,,031-963-1999,경기도 고양시 일산동구청,031-8075-6342,2020-05-15
화니카센타,03,경기도 고양시 일산동구 성현로 201,경기도 고양시 일산동구 성석동 491-2번지,37.70894618,126.8084713,1998-02-11,101,01,,,,,,031-977-0425,경기도 고양시 일산동구청,031-8075-6342,2020-05-15
(주)풍동중부점현대자동차,03,경기도 고양시 일산동구 백마로 517,경기도 고양시 일산동구 풍동 116-1번지,37.66363021,126.805387,1997-03-10,578,03,2020-01-13,,,,,031-903-8272,경기도 고양시 일산동구청,031-8075-6342,2020-05-15
르노삼성자동차㈜일산지점,03,경기도 고양시 일산동구 경의로 29,경기도 고양시 일산동구 백석동 1316-2번지,37.63867766,126.790003,1998-04-09,559,01,,,,,,031-901-3993,경기도 고양시 일산동구청,031-8075-6342,2020-05-15
현대오토카써비스,03,경기도 고양시 일산동구 강촌로26번길 15-1,경기도 고양시 일산동구 백석동 1413-8번지,37.64619383,126.7796602,1998-06-27,84,01,,,,,,031-902-5636,경기도 고양시 일산동구청,031-8075-6342,2020-05-15
천일카센타,03,경기도 고양시 일산동구 강송로125번길 59-6,경기도 고양시 일산동구 백석동 1201-1번지,37.64815206,126.783447,1998-08-25,86,01,,,,,,031-903-4116,경기도 고양시 일산동구청,031-8075-6342,2020-05-15
백석점기아오토큐,03,경기도 고양시 일산동구 강촌로12번길 7-3,경기도 고양시 일산동구 백석동 1453-3번지,37.64551185,126.7781869,1998-08-25,82,01,,,,,,031-904-4972,경기도 고양시 일산동구청,031-8075-6342,2020-05-15
밤가시카서비스,03,경기도 고양시 일산동구 산두로 265-2,경기도 고양시 일산동구 정발산동 1133번지,37.67520833,126.776363,1998-08-27,231,01,,,,,,,경기도 고양시 일산동구청,031-8075-6342,2020-05-15
진선카센타,03,경기도 고양시 일산동구 장항로 237,경기도 고양시 일산동구 장항동 578-27번지,37.64127853,126.7731121,1998-09-19,81,01,,,,,,031-901-3553,경기도 고양시 일산동구청,031-8075-6342,2020-05-15
현대카크리릭,03,경기도 고양시 일산동구 견달산로225번길 1,경기도 고양시 일산동구 식사동 1166번지,37.68577806,126.8198163,1998-10-12,119,01,,,,,,031-968-3182,경기도 고양시 일산동구청,031-8075-6342,2020-05-15
하나로정비센타,03,경기도 고양시 일산동구 장항로 213,경기도 고양시 일산동구 장항동 601-25번지,37.64021247,126.775441,1998-10-19,82,01,,,,,,031-907-9092,경기도 고양시 일산동구청,031-8075-6342,2020-05-15
충북모터스,03,경기도 고양시 일산동구 장항로 136,경기도 고양시 일산동구 백석동 907-304번지,37.63570438,126.7821202,1998-10-31,122,01,,,,,,031-905-4086,경기도 고양시 일산동구청,031-8075-6342,2020-05-15
동영카독크,03,경기도 고양시 일산동구 숲속마을1로48번길 2-1,경기도 고양시 일산동구 풍동 1301-1번지,37.66517247,126.8002051,1998-11-05,107,01,,,,,,031-968-1898,경기도 고양시 일산동구청,031-8075-6342,2020-05-15
현진모터스,03,경기도 고양시 일산동구 중산로157번길 44-2,경기도 고양시 일산동구 중산동 1661-7번지,37.68470907,126.7793702,1998-11-23,92,01,,,,,,031-914-9717,경기도 고양시 일산동구청,031-8075-6342,2020-05-15
태영종합카,03,경기도 고양시 일산동구 탄중로425번길 16,경기도 고양시 일산동구 중산동 1588-2번지,37.68656213,126.7790791,1998-11-23,229,01,,,,,,031-975-8646,경기도 고양시 일산동구청,031-8075-6342,2020-05-15
화이트모터스,03,경기도 고양시 일산동구 대산로11번길 95,경기도 고양시 일산동구 정발산동 719번지,37.66621911,126.7714326,1998-12-04,80,01,,,,,,031-924-7221,경기도 고양시 일산동구청,031-8075-6342,2020-05-15
오토플러스,03,경기도 고양시 일산동구 고양대로 881,경기도 고양시 일산동구 풍동 660-2번지,37.67889574,126.7932165,2014-03-05,215,03,2019-06-17,,,,,031-976-6789,경기도 고양시 일산동구청,031-8075-6342,2020-05-15
새한공조,03,경기도 고양시 일산동구 장항로 243,경기도 고양시 일산동구 장항동 578-24번지,37.6414975,126.7725079,2014-05-15,255,01,,,,,,031-907-2724,경기도 고양시 일산동구청,031-8075-6342,2020-05-15
ART모터스,03,경기도 고양시 일산동구 고봉로 684,경기도 고양시 일산동구 설문동 797-6번지,37.71784324,126.789402,2014-06-09,473,01,,,,,,031-977-7704,경기도 고양시 일산동구청,031-8075-6342,2020-05-15
강송카서비스,03,경기도 고양시 일산동구 강송로73번길 7-4,경기도 고양시 일산동구 백석동 1249-1번지,37.64620913,126.789899,2014-06-02,124,01,,,,,,031-906-7962,경기도 고양시 일산동구청,031-8075-6342,2020-05-15
주식회사 신한일카센타,03,경기도 고양시 일산동구 성현로 335,경기도 고양시 일산동구 문봉동 165-2번지,37.70291041,126.8211327,2007-06-07,163,01,,,,,,031-965-2964,경기도 고양시 일산동구청,031-8075-6342,2020-05-15
중앙자동차공업사,03,경기도 고양시 일산동구 무궁화로187번길 42,경기도 고양시 일산동구 정발산동 1229-4번지,37.67294669,126.7807076,2007-07-18,78,01,,,,,,031-924-7772,경기도 고양시 일산동구청,031-8075-6342,2020-05-15
오토오아시스 홈플러스 일산점,03,경기도 고양시 일산동구 중앙로1275번길 64,경기도 고양시 일산동구 장항동 755번지,37.65903822,126.7688535,2008-07-28,192,01,,,,,,02-2104-4831,경기도 고양시 일산동구청,031-8075-6342,2020-05-15
스타일모터스,03,경기도 고양시 일산동구 강송로113번길 57,경기도 고양시 일산동구 백석동 1197번지,37.64732546,126.7845483,2007-11-13,92,01,,,,,,031-902-8124,경기도 고양시 일산동구청,031-8075-6342,2020-05-15
오토모터스,03,경기도 고양시 일산동구 장항로 207,경기도 고양시 일산동구 장항동 601-18번지,37.63979353,126.7758784,2007-12-04,190,03,2020-02-13,,,,,031-906-7975,경기도 고양시 일산동구청,031-8075-6342,2020-05-15
신성카센타,03,경기도 고양시 일산동구 백석로85번길 45-12,경기도 고양시 일산동구 백석동 1220-4번지,37.64921036,126.7847216,2008-01-09,99,01,,,,,,031-902-1023,경기도 고양시 일산동구청,031-8075-6342,2020-05-15
대선자동차공업사,03,경기도 고양시 일산동구 장항로 139-36,경기도 고양시 일산동구 장항동 623-55번지,37.63472175,126.7803235,2008-02-18,72,03,,,,,,031-907-4523,경기도 고양시 일산동구청,031-8075-6342,2020-05-15
태경오토미션,03,경기도 고양시 일산동구 백마로 442,경기도 고양시 일산동구 풍동 457-2번지,37.66065826,126.7975349,2008-06-24,70,01,,,,,,031-905-6303,경기도 고양시 일산동구청,031-8075-6342,2020-05-15
동남카서비스,03,경기도 고양시 일산동구 성현로 205,경기도 고양시 일산동구 성석동 498-3번지,37.70878894,126.8089615,2008-07-23,112,01,,,,,,031-975-7999,경기도 고양시 일산동구청,031-8075-6342,2020-05-15
신도시자동차공업사,03,경기도 고양시 일산동구 장항로 385,경기도 고양시 일산동구 장항동 673-73번지,37.64877616,126.7602859,2002-08-30,186,01,,,,,,031-904-6545,경기도 고양시 일산동구청,031-8075-6342,2020-05-15
에덴카센타,03,경기도 고양시 일산서구 경의로 867-1,경기도 고양시 일산서구 덕이동 277-1번지,37.69516028,126.759342,1998-10-12,132,01,,,,,,031-918-4774,경기도 고양시 일산서구청,031-8075-7348,2020-05-15
에이스모터스,03,경기도 고양시 일산서구 대화로27번길 30,경기도 고양시 일산서구 법곳동 63-1번지,37.66581831,126.7251762,2018-08-21,99,01,,,,,,,경기도 고양시 일산서구청,031-8075-7348,2020-05-15
에이치케이모터즈 주식회사,03,경기도 고양시 일산서구 덕이로 104-12,경기도 고양시 일산서구 덕이동 525-2번지,37.6920509,126.7493383,2017-03-16,198,01,,,,,,02-578-7161,경기도 고양시 일산서구청,031-8075-7348,2020-05-15
엠제트 퍼포먼스,03,경기도 고양시 일산서구 구산로135번길 38,경기도 고양시 일산서구 구산동 409-1번지,37.69460431,126.7035315,2018-11-06,306,01,,,,,,02-6217-2000,경기도 고양시 일산서구청,031-8075-7348,2020-05-15
영모터스,03,경기도 고양시 일산서구 덕이로172번길 4-5,경기도 고양시 일산서구 덕이동 822-9번지,37.69415319,126.7415531,2010-02-25,100,01,,,,,,031-913-1113,경기도 고양시 일산서구청,031-8075-7348,2020-05-15
에이스카,03,경기도 고양시 일산동구 정발산로196번길 8-1,경기도 고양시 일산동구 마두동 897번지,37.6628135,126.7871409,1999-10-16,91,01,,,,,,031-905-8160,경기도 고양시 일산동구청,031-8075-6342,2020-05-15
보쉬카서비스첨단,03,경기도 고양시 일산동구 호수로430번길 9,경기도 고양시 일산동구 백석동 1440-4번지,37.64354424,126.7796015,1998-03-13,82,01,,,,,,031-905-3683,경기도 고양시 일산동구청,031-8075-6342,2020-05-15
㈜카인카모터스,02,경기도 고양시 일산서구 멱절길 12,경기도 고양시 일산서구 법곳동 207-2번지,37.66080849,126.7250133,2001-05-25,491,01,,,,,,031-916-3554,경기도 고양시 일산서구청,031-8075-7348,2020-05-15
㈜태안모터스 일산서비스,02,경기도 고양시 일산서구 송파로 131,경기도 고양시 일산서구 가좌동 636-2번지,37.69516588,126.7134754,2013-02-15,4958,01,,,,,,031-905-1463,경기도 고양시 일산서구청,031-8075-7348,2020-05-15
카 원스톱,02,경기도 고양시 일산서구 덕이로 72,경기도 고양시 일산서구 덕이동 426-6번지,37.69081596,126.7516055,2018-12-04,775,01,,,,,,031-919-9228,경기도 고양시 일산서구청,031-8075-7348,2020-05-15
케이씨씨모터스㈜,02,경기도 고양시 일산서구 멱절길 3,경기도 고양시 일산서구 법곳동 209-27번지,37.66153119,126.7258357,2006-02-22,2564,01,,,,,,031-994-7000,경기도 고양시 일산서구청,031-8075-7348,2020-05-15
코엑스운수주식회사,02,경기도 고양시 일산서구 덕산로195번길 107,경기도 고양시 일산서구 가좌동 547-3번지,37.69894738,126.7214209,2004-10-07,467,01,,,,,,031-902-2500,경기도 고양시 일산서구청,031-8075-7348,2020-05-15
코오롱오토케어서비스㈜,02,경기도 고양시 일산서구 덕이로 40,경기도 고양시 일산서구 덕이동 450-2번지,37.68998353,126.7550867,2018-10-29,1670,01,,,,,,031-911-1987,경기도 고양시 일산서구청,031-8075-7348,2020-05-15
퍼스트서비스㈜,02,경기도 고양시 일산서구 송산로 581,경기도 고양시 일산서구 덕이동 864-2번지,37.69277902,126.741059,2008-04-07,1232,01,,,,,,031-913-2913,경기도 고양시 일산서구청,031-8075-7348,2020-05-15
현대모터스,02,경기도 고양시 일산서구 멱절길 45,경기도 고양시 일산서구 법곳동 267-6번지,37.65932675,126.7278929,2018-11-06,500,01,,,,,,031-925-0999,경기도 고양시 일산서구청,031-8075-7348,2020-05-15
(주)타이어투데이,03,경기도 고양시 일산서구 덕이로 292,경기도 고양시 일산서구 덕이동 1196-3번지,37.70219996,126.7331384,2015-01-21,396,01,,,,,,031-917-0001,경기도 고양시 일산서구청,031-8075-7348,2020-05-15
all motors(올 모터스),03,경기도 고양시 일산서구 대화로398번길 8-7,경기도 고양시 일산서구 대화동 2091-7번지,37.68255616,126.751769,2001-09-18,97,01,,,,,,031-913-1351,경기도 고양시 일산서구청,031-8075-7348,2020-05-15
CJ모터스,03,경기도 고양시 일산서구 덕이로 272,경기도 고양시 일산서구 덕이동 1108-6번지,37.7008624985,126.7345492725,2020-02-19,390,01,,,,,,,경기도 고양시 일산서구청,031-8075-7348,2020-05-15
J Motors(제이모터스),03,경기도 고양시 일산서구 대화로 142,경기도 고양시 일산서구 대화동 771-3번지,37.67115462,126.7357433,2010-03-23,175,01,,,,,,031-913-1333,경기도 고양시 일산서구청,031-8075-7348,2020-05-15
OK자동차공업사,03,경기도 고양시 일산서구 호수로838번길 16-1,경기도 고양시 일산서구 대화동 2290-13번지,37.67054125,126.7503084,2004-02-04,96,01,,,,,,031-916-5060,경기도 고양시 일산서구청,031-8075-7348,2020-05-15
SL-motors,03,경기도 고양시 일산서구 덕산로 78,경기도 고양시 일산서구 구산동 9-3번지,37.69408061,126.7117925,2008-07-16,194,01,,,,,,031-911-1650,경기도 고양시 일산서구청,031-8075-7348,2020-05-15
SNP 모터스,03,경기도 고양시 일산서구 고양대로 609,경기도 고양시 일산서구 일산동 972-4번지,37.68698309,126.7647241,2006-08-07,180,01,,,,,,031-977-9775,경기도 고양시 일산서구청,031-8075-7348,2020-05-15
가람트레이딩,03,경기도 고양시 일산서구 대화로 42,경기도 고양시 일산서구 대화동 1418-1번지,37.66578399,126.7274703,2011-06-20,563,01,,,,,,031-818-2848,경기도 고양시 일산서구청,031-8075-7348,2020-05-15
가좌점 현대자동차,03,경기도 고양시 일산서구 송산로 414,경기도 고양시 일산서구 가좌동 218-4번지,37.68581174,126.7247306,2014-04-29,403,01,,,,,,031-923-8210,경기도 고양시 일산서구청,031-8075-7348,2020-05-15
강명한모터스,03,경기도 고양시 일산서구 멱절길 14,경기도 고양시 일산서구 법곳동 206-4번지,37.66067127,126.724896,2002-09-25,96,01,,,,,,031-918-3507,경기도 고양시 일산서구청,031-8075-7348,2020-05-15
KCC오토모빌,02,경기도 고양시 일산동구 백마로 516,경기도 고양시 일산동구 풍동 116-3번지,37.66310817,126.8054407,2012-12-26,1389,01,,,,,,031-738-6905,경기도 고양시 일산동구청,031-8075-6342,2020-05-15
통일카서비스,03,경기도 고양시 덕양구 세솔로 124,경기도 고양시 덕양구 삼송동 299-4번지,37.65432087,126.8857698,2013-08-19,102.97,01,,,,,,02-381-1344,경기도 고양시 덕양구청,031-8075-5342,2020-05-15
타이어하우스,03,경기도 고양시 덕양구 화랑로 179,경기도 고양시 덕양구 화전동 430-3번지,37.6134018100,126.8726673350,2014-02-21,209.8,01,,,,,,031-973-1110,경기도 고양시 덕양구청,031-8075-5342,2020-05-15
주영자동차공업사,03,경기도 고양시 덕양구 고골길 128-10,경기도 고양시 덕양구 관산동 617번지,37.71328883,126.8667897,2014-05-20,198,03,2020-01-07,,,,,031-969-1688,경기도 고양시 덕양구청,031-8075-5342,2020-05-15
승진카센타,03,경기도 고양시 덕양구 고양대로 1894,경기도 고양시 덕양구 동산동 160-2번지,37.64336429,126.8898705,2014-08-29,98,03,2018-09-14,,,,,02-304-6601,경기도 고양시 덕양구청,031-8075-5342,2020-05-15
덕은점 기아오토큐(舊한국타이어 덕은점),03,경기도 고양시 덕양구 덕은로 41,경기도 고양시 덕양구 덕은동 201-8번지,37.5862789,126.8765359,2014-11-25,146.73,01,,,,,,02-3159-8861,경기도 고양시 덕양구청,031-8075-5342,2020-05-15
친절카센타,03,경기도 고양시 덕양구 동헌로 439,경기도 고양시 덕양구 고양동 31-59번지,37.70656487,126.9005821,2014-12-26,102.96,03,2019-10-10,,,,,031-963-9089,경기도 고양시 덕양구청,031-8075-5342,2020-05-15
경성자동차공업사,03,경기도 고양시 일산서구 대산로211번길 53-2,경기도 고양시 일산서구 대화동 2147-6번지,37.67640154,126.7556255,1997-12-11,231,01,,,,,,031-915-6181,경기도 고양시 일산서구청,031-8075-7348,2020-05-15
광명모터스,03,경기도 고양시 일산서구 고양대로 710,경기도 고양시 일산서구 일산동 산37-11번지,37.68325451,126.7747031,1998-07-23,88,01,,,,,,031-975-7141,경기도 고양시 일산서구청,031-8075-7348,2020-05-15
차사랑모터스,03,경기도 고양시 일산서구 일산로741번길 6-4,경기도 고양시 일산서구 대화동 2196번지,37.6769574,126.7508672,2004-01-08,80,01,,,,,,031-911-8278,경기도 고양시 일산서구청,031-8075-7348,2020-05-15
카맨샵,03,경기도 고양시 일산서구 킨텍스로 287,경기도 고양시 일산서구 대화동 2283-1번지,37.6709086,126.751894,2000-09-18,76,01,,,,,,031-911-1190,경기도 고양시 일산서구청,031-8075-7348,2020-05-15
카이노베이션,03,경기도 고양시 일산서구 성저로 118-1,경기도 고양시 일산서구 대화동 2004-3번지,37.68434231,126.7597987,2002-07-26,121,01,,,,,,031-924-3242,경기도 고양시 일산서구청,031-8075-7348,2020-05-15
카젠 일산중부점,03,경기도 고양시 일산서구 탄중로 490,경기도 고양시 일산서구 일산동 584-22번지,37.68887897,126.7721828,2007-04-23,141,01,,,,,,031-974-3950,경기도 고양시 일산서구청,031-8075-7348,2020-05-15
주식회사 덱스크루,03,"경기도 고양시 일산동구 고양대로 950 ,13동",경기도 고양시 일산동구 식사동 835-2번지 13동,37.67540505,126.7990316,2017-05-31,116.52,03,2020-03-23,,,,,031-966-6736,경기도 고양시 일산동구청,031-8075-6342,2020-05-15
명성운수㈜1급자가정비공업사,01,경기도 고양시 일산서구 대화로 97,경기도 고양시 일산서구 대화동 1475-2번지,37.66926588,126.7308308,1995-05-11,1500,01,,,,,,031-912-7031,경기도 고양시 일산서구청,031-8075-7348,2020-05-15
북부일산자동차서비스,01,경기도 고양시 일산서구 경의로 939,경기도 고양시 일산서구 덕이동 309-87번지,37.70146346,126.7593261,2002-11-29,1599,01,,,,,,031-922-9000,경기도 고양시 일산서구청,031-8075-7348,2020-05-15
일산1급자동차서비스,01,경기도 고양시 일산서구 장자길 100-9,경기도 고양시 일산서구 덕이동 727-5번지,37.69997259,126.7427938,2005-10-28,1308,01,,,,,,031-924-1155,경기도 고양시 일산서구청,031-8075-7348,2020-05-15
㈜바바리안모터스,01,경기도 고양시 일산서구 법곳길115번길 56-18,경기도 고양시 일산서구 법곳동 334-1번지,37.6608758891,126.723099,2020-04-10,3306,01,,,,,,031-994-7401,경기도 고양시 일산서구청,031-8075-7348,2020-05-15
주식회사 세븐그램스,01,경기도 고양시 일산서구 덕이로 193,경기도 고양시 일산서구 덕이동 993-1번지,37.69481897,126.7394872,2009-06-24,1229,01,,,,,,031-917-7793,경기도 고양시 일산서구청,031-8075-7348,2020-05-15
㈜일산그린자동차공업사,01,경기도 고양시 일산서구 송산로 528,경기도 고양시 일산서구 덕이동 931-3번지,37.68976926,126.7359539,2007-06-22,1241,01,,,,,,031-916-9097,경기도 고양시 일산서구청,031-8075-7348,2020-05-15
K 모터스,02,경기도 고양시 일산서구 송산로 531,경기도 고양시 일산서구 덕이동 958번지,37.69062441,126.7364134,2013-09-11,998,01,,,,,,031-916-3558,경기도 고양시 일산서구청,031-8075-7348,2020-05-15
골드모터스,02,경기도 고양시 일산서구 멱절길35번길 168-154,경기도 고양시 일산서구 법곳동 180-10번지,37.65853665,126.7290925,2008-05-13,661,01,,,,,,031-917-6080,경기도 고양시 일산서구청,031-8075-7348,2020-05-15
구산자동차공업사,03,경기도 고양시 일산서구 송산로 196,경기도 고양시 일산서구 구산동 582-6번지,37.68370684,126.7009584,2008-06-05,190,01,,,,,,031-975-3154,경기도 고양시 일산서구청,031-8075-7348,2020-05-15
뉴스카이모터스,03,경기도 고양시 일산서구 고봉로 351,경기도 고양시 일산서구 일산동 1877번지,37.69097731,126.7764031,2003-02-06,137,01,,,,,,031-975-5772,경기도 고양시 일산서구청,031-8075-7348,2020-05-15
늘편한자동차공업사,03,경기도 고양시 일산서구 산현로 118,경기도 고양시 일산서구 일산동 1711번지,37.69227717,126.7739139,1999-09-10,131,01,,,,,,031-917-4190,경기도 고양시 일산서구청,031-8075-7348,2020-05-15
달구지모터스,03,경기도 고양시 일산서구 성저로46번길 90,경기도 고양시 일산서구 대화동 2062번지,37.68526076,126.7560227,2004-02-21,96,01,,,,,,031-916-9209,경기도 고양시 일산서구청,031-8075-7348,2020-05-15
대신자동차공업사,03,경기도 고양시 일산서구 덕이로 205,경기도 고양시 일산서구 덕이동 1045-9번지,37.69601018,126.7387301,1999-06-22,198,01,,,,,,031-921-4999,경기도 고양시 일산서구청,031-8075-7348,2020-05-15
대화점 기아오토큐,03,경기도 고양시 일산서구 대화로398번길 7-15,경기도 고양시 일산서구 대화동 2087-5번지,37.68220605,126.7532304,1999-10-16,79,01,,,,,,031-917-8522,경기도 고양시 일산서구청,031-8075-7348,2020-05-15
대흥카센타,03,경기도 고양시 일산서구 일중로 57,경기도 고양시 일산서구 일산동 542-8번지,37.68474385,126.7751884,2002-10-14,71,01,,,,,,031-977-6801,경기도 고양시 일산서구청,031-8075-7348,2020-05-15
타이어e마트,03,경기도 고양시 덕양구 화랑로 185,경기도 고양시 덕양구 화전동 431-4번지,37.6138778,126.8729202,2017-09-19,196.71,03,2020-01-22,,,,,02-3158-1258,경기도 고양시 덕양구청,031-8075-5342,2020-05-15
오토프라자,03,경기도 고양시 덕양구 세솔로2길 5,경기도 고양시 덕양구 삼송동 303-7번지,37.65290593,126.8881929,2018-05-24,119.19,01,,,,,,02-381-0021,경기도 고양시 덕양구청,031-8075-5342,2020-05-15
(주)에이제이카리안디투디,03,경기도 고양시 덕양구 덕은로 19,경기도 고양시 덕양구 덕은동 209-2번지,37.58827911,126.8765416,2018-06-01,172.8,01,,,,,,02-6287-1620,경기도 고양시 덕양구청,031-8075-5342,2020-05-15
경기모터스,03,경기도 고양시 덕양구 고양대로1290번길 42,경기도 고양시 덕양구 주교동 190-5번지,37.65515771,126.8277649,2018-06-18,196.26,01,,,,,,031-381-5581,경기도 고양시 덕양구청,031-8075-5342,2020-05-15
쌍용자동차고양삼송서비스,03,경기도 고양시 덕양구 삼원로2길 10,경기도 고양시 덕양구 삼송동 356번지,37.64442634,126.8777631,2018-06-20,1039.48,01,,,,,,02-381-5581,경기도 고양시 덕양구청,031-8075-5342,2020-05-15
